Frame result index,Frame Number,Person UUID,Person UUID Confidence,Headpose Pitch (deg),Headpose Yaw (deg),Headpose Roll (deg),Headpose Pitch Calib (deg),Headpose Yaw Calib (deg),Headpose (X:Y:Z) (mm),Headpose Confidence,Face Rect (X:Y Width X Height),Face Rect detect algorithm,Face Rect Confidence,EyeState Right,EyeState Left,EyeState Right Confidence,EyeState Left Confidence,Eyewear,Eyewear Confidence,EyeGaze Horizontal Left (deg),EyeGaze Horizontal Right (deg),EyeGaze Vertical Left (deg),EyeGaze Vertical Right (deg),Iris RadiusL (mm),Iris RadiusR (mm),Eye Aperture Left (mm),Eye Aperture Right (mm),Eye Aperture Left Confidence,Eye Aperture Right Confidence,Eyelid Closed Left (%),Eyelid Closed Right (%),Eye Center Left (X:Y) (mm),Eye Center Right (X:Y) (mm),Drowsiness Level (0-10),Age,Gender,Ethnic,Emotion,Heart rate,Breath rate,Illumination Variance,Illumination Tl Average,Illumination Bl Average,Illumination Tr Average,Illumination Br Average,Frame Time,Time From Start
0,1,,0,-0.433744,1.45454,1.58339,0,0,-26.7386:-44.2372:724.894,0.19,201:142 184x184,64,0.840228,opened,opened,0.999998,1,unknown,0,4.23254,4.23254,6.95887,6.95887,5.65217,5.21739,4.89334,5.6521,0.189978,0.189823,0.555151,0.486172,2:-23,-52:-23,9999,n/a,N/A,Unknown,N/A,9999,9999,9999,9999,9999,9999,9999,2020-06-28T15:13:09.458,0
0,2,,0,-0.777702,1.44263,1.75932,0,0,-27.0515:-44.9526:726.875,0.99,201:142 183x183,512,0.839387,opened,opened,0.999998,1,unknown,0,3.36879,3.36879,7.12223,7.12223,5.66762,5.66762,4.84419,6.17316,0.989997,0.98998,0.559619,0.438804,3:-23,-51:-24,9999,n/a,N/A,Unknown,N/A,9999,9999,9999,9999,9999,9999,9999,2020-06-28T15:13:09.498,40
0,3,,0,-0.793767,1.44924,1.95464,0,0,-26.9187:-44.9044:727.535,0.99,201:143 183x183,512,0.838548,opened,opened,0.999995,1,none,0.999931,3.1877,3.1877,7.39541,7.39541,5.67276,5.67276,4.97345,5.77219,0.989875,0.989154,0.547868,0.475256,3:-23,-51:-24,9999,n/a,N/A,Unknown,N/A,9999,9999,9999,9999,9999,9999,9999,2020-06-28T15:13:09.538,80
0,4,,0,-0.6048,1.55169,1.65353,0,0,-26.7468:-44.9024:727.865,0.99,202:143 183x183,512,0.837709,opened,opened,0.999999,1,none,0.999931,3.3715,3.3715,7.59572,7.59572,5.67534,5.23877,5.0922,5.52412,0.989528,0.989966,0.537073,0.497808,3:-23,-51:-23,9999,n/a,N/A,Unknown,N/A,9999,9999,9999,9999,9999,9999,9999,2020-06-28T15:13:09.578,120
0,5,,0,-1.40137,1.51555,1.55029,0,0,-26.7248:-45.3088:728.063,0.989068,202:142 183x183,512,0.836872,opened,opened,0.999994,1,none,0.999941,3.61906,3.61906,7.51468,7.51468,5.67688,5.67688,5.13107,5.90263,0.988262,0.988992,0.533539,0.463397,3:-23,-52:-23,9999,n/a,N/A,Unknown,N/A,9999,9999,9999,9999,9999,9999,9999,2020-06-28T15:13:09.618,160
0,6,,0,-1.14819,1.18616,1.583,0,0,-25.9483:-44.6388:728.195,0.989063,204:144 183x183,512,0.828503,opened,opened,0.999998,1,none,0.999941,3.78539,3.78539,7.23284,7.23284,5.67791,5.67791,5.30217,5.90315,0.989063,0.988275,0.517985,0.46335,4:-23,-50:-22,9999,n/a,N/A,Unknown,N/A,9999,9999,9999,9999,9999,9999,9999,2020-06-28T15:13:09.658,200
0,7,,0,0.00804949,1.10877,1.36054,0,0,-25.1617:-44.0568:728.29,0.988499,205:144 183x183,512,0.827675,opened,opened,0.998564,0.998995,none,0.999938,3.03878,3.03878,7.78596,7.78596,5.24183,5.67865,4.64827,5.03376,0.969041,0.987341,0.57743,0.542386,6:-21,-48:-20,9999,n/a,N/A,Unknown,N/A,9999,9999,9999,9999,9999,9999,9999,2020-06-28T15:13:09.698,240
0,8,,0,0.00410035,1.52907,1.38495,0,0,-24.5903:-43.588:728.36,0.989208,205:144 183x183,512,0.826847,closed,closed,0.998815,0.996586,none,0.999938,9999,9999,9999,9999,9999,9999,0,0,0.988601,0.987691,1,1,9999:9999,9999:9999,9999,n/a,N/A,Unknown,N/A,9999,9999,9999,9999,9999,9999,9999,2020-06-28T15:13:09.738,280
0,9,,0,0.197941,1.20348,1.63203,0,0,-24.1189:-42.6562:728.415,0.987839,204:144 183x183,512,0.82602,closed,closed,0.999002,0.999686,none,0.999891,9999,9999,9999,9999,9999,9999,0,0,0.987787,0.987745,1,1,9999:9999,9999:9999,9999,n/a,N/A,Unknown,N/A,9999,9999,9999,9999,9999,9999,9999,2020-06-28T15:13:09.778,320
0,10,,0,0.319004,0.863616,1.73035,0,0,-24.1952:-42.6138:728.459,0.98998,204:144 183x183,512,0.825194,closed,closed,0.996715,0.997982,none,0.999891,9999,9999,9999,9999,9999,9999,0,0,0.989737,0.730128,1,1,9999:9999,9999:9999,9999,n/a,N/A,Unknown,N/A,9999,9999,9999,9999,9999,9999,9999,2020-06-28T15:13:09.818,360
0,11,,0,0.366558,0.982686,1.75621,0,0,-24.267:-42.379:728.495,0.989984,204:145 183x183,512,0.824369,closed,closed,0.999413,0.998248,none,0.99949,9999,9999,9999,9999,9999,9999,0,0,0.989975,0.966211,1,1,9999:9999,9999:9999,9999,n/a,N/A,Unknown,N/A,9999,9999,9999,9999,9999,9999,9999,2020-06-28T15:13:09.858,400
0,12,,0,0.574353,1.00201,1.99799,0,0,-24.2777:-42.0382:728.525,0.989987,204:144 183x183,512,0.823545,closed,closed,0.999713,0.999529,none,0.99949,9999,9999,9999,9999,9999,9999,0,0,0.989987,0.988616,1,1,9999:9999,9999:9999,9999,n/a,N/A,Unknown,N/A,9999,9999,9999,9999,9999,9999,9999,2020-06-28T15:13:09.898,440
0,13,,0,0.392911,1.05719,2.10037,0,0,-24.3822:-41.8106:728.551,0.99,203:145 183x183,512,0.815309,closed,closed,0.999638,0.999112,none,0.999512,9999,9999,9999,9999,9999,9999,0,0,0.98998,0.988278,1,1,9999:9999,9999:9999,9999,n/a,N/A,Unknown,N/A,9999,9999,9999,9999,9999,9999,9999,2020-06-28T15:13:09.938,480
0,14,,0,0.485044,0.952562,1.85032,0,0,-24.514:-41.464:728.573,0.99,203:145 183x183,512,0.814494,closed,closed,0.999818,0.999353,none,0.999512,9999,9999,9999,9999,9999,9999,0,0,0.989997,0.989914,1,1,9999:9999,9999:9999,9999,n/a,N/A,Unknown,N/A,9999,9999,9999,9999,9999,9999,9999,2020-06-28T15:13:09.978,520
0,15,,0,0.842319,1.04757,1.78491,0,0,-24.9044:-41.309:728.591,0.99,203:145 183x183,512,0.813679,closed,closed,0.999921,0.999816,none,0.999536,9999,9999,9999,9999,9999,9999,0,0,0.989586,0.966848,1,1,9999:9999,9999:9999,9999,n/a,N/A,Unknown,N/A,9999,9999,9999,9999,9999,9999,9999,2020-06-28T15:13:10.018,560
0,16,,0,0.654191,1.12562,1.74449,0,0,-25.1367:-41.4179:728.608,0.99,203:145 183x183,512,0.812866,closed,closed,0.999924,0.999879,none,0.999536,9999,9999,9999,9999,9999,9999,0,0,0.989518,0.98981,1,1,9999:9999,9999:9999,9999,n/a,N/A,Unknown,N/A,9999,9999,9999,9999,9999,9999,9999,2020-06-28T15:13:10.058,600
0,17,,0,0.276591,1.03482,1.59657,0,0,-24.9744:-41.6966:728.622,0.99,203:145 183x183,512,0.812053,closed,closed,0.999943,0.999874,none,0.999581,9999,9999,9999,9999,9999,9999,0,0,0.989962,0.988292,1,1,9999:9999,9999:9999,9999,n/a,N/A,Unknown,N/A,9999,9999,9999,9999,9999,9999,9999,2020-06-28T15:13:10.098,640
0,18,,0,0.539676,0.882654,1.65772,0,0,-24.7471:-41.7263:728.635,0.99,204:145 183x183,512,0.811241,closed,closed,0.999923,0.999926,none,0.999581,9999,9999,9999,9999,9999,9999,0,0,0.989569,0.988956,1,1,9999:9999,9999:9999,9999,n/a,N/A,Unknown,N/A,9999,9999,9999,9999,9999,9999,9999,2020-06-28T15:13:10.138,680
0,19,,0,0.664559,0.743465,1.70985,0,0,-24.3121:-42.0624:728.647,0.99,204:145 183x183,512,0.81043,closed,closed,0.999918,0.99995,none,0.999594,9999,9999,9999,9999,9999,9999,0,0,0.989765,0.989991,1,1,9999:9999,9999:9999,9999,n/a,N/A,Unknown,N/A,9999,9999,9999,9999,9999,9999,9999,2020-06-28T15:13:10.178,720
0,20,,0,0.739044,0.837945,1.64378,0,0,-24.0377:-41.9099:728.657,0.99,204:145 183x183,512,0.809619,closed,closed,0.999941,0.999892,none,0.999594,9999,9999,9999,9999,9999,9999,0,0,0.989767,0.989959,1,1,9999:9999,9999:9999,9999,n/a,N/A,Unknown,N/A,9999,9999,9999,9999,9999,9999,9999,2020-06-28T15:13:10.218,760
0,21,,0,1.00155,1.21918,1.52673,0,0,-24.0233:-41.6787:728.667,0.99,204:145 183x183,512,0.80881,closed,closed,0.999922,0.99989,none,0.999622,9999,9999,9999,9999,9999,9999,0,0,0.989991,0.989971,1,1,9999:9999,9999:9999,9999,n/a,N/A,Unknown,N/A,9999,9999,9999,9999,9999,9999,9999,2020-06-28T15:13:10.258,800
0,22,,0,0.842473,1.17147,1.62059,0,0,-23.7123:-41.5542:728.675,0.99,204:146 183x183,512,0.808001,closed,closed,0.999858,0.999846,none,0.999622,9999,9999,9999,9999,9999,9999,0,0,0.989959,0.989999,1,1,9999:9999,9999:9999,9999,n/a,N/A,Unknown,N/A,9999,9999,9999,9999,9999,9999,9999,2020-06-28T15:13:10.298,840
0,23,,0,0.886284,1.07869,1.78536,0,0,-23.7924:-41.4279:728.683,0.99,204:145 183x183,512,0.807193,closed,closed,0.999946,0.999852,none,0.999648,9999,9999,9999,9999,9999,9999,0,0,0.989318,0.989999,1,1,9999:9999,9999:9999,9999,n/a,N/A,Unknown,N/A,9999,9999,9999,9999,9999,9999,9999,2020-06-28T15:13:10.338,880
0,24,,0,1.07883,1.35353,1.83018,0,0,-24.0289:-41.3613:728.69,0.99,204:145 183x183,512,0.806386,closed,closed,0.999938,0.999975,none,0.999648,9999,9999,9999,9999,9999,9999,0,0,0.989999,0.989449,1,1,9999:9999,9999:9999,9999,n/a,N/A,Unknown,N/A,9999,9999,9999,9999,9999,9999,9999,2020-06-28T15:13:10.378,920
0,25,,0,0.976591,1.38542,1.87481,0,0,-23.9673:-41.4228:728.697,0.99,204:145 183x183,512,0.805579,closed,closed,0.999924,0.999906,none,0.999621,9999,9999,9999,9999,9999,9999,0,0,0.99,0.989997,1,1,9999:9999,9999:9999,9999,n/a,N/A,Unknown,N/A,9999,9999,9999,9999,9999,9999,9999,2020-06-28T15:13:10.418,960
0,26,,0,1.05257,1.27733,1.90448,0,0,-24.1753:-41.4832:728.703,0.99,204:145 183x183,512,0.804774,closed,closed,0.999938,0.999892,none,0.999621,9999,9999,9999,9999,9999,9999,0,0,0.989599,0.988878,1,1,9999:9999,9999:9999,9999,n/a,N/A,Unknown,N/A,9999,9999,9999,9999,9999,9999,9999,2020-06-28T15:13:10.458,1000
0,27,,0,0.899343,1.25297,1.73648,0,0,-24.2345:-41.3587:728.709,0.99,204:145 183x183,512,0.803969,closed,closed,0.999877,0.999953,none,0.999579,9999,9999,9999,9999,9999,9999,0,0,0.989999,0.989992,1,1,9999:9999,9999:9999,9999,n/a,N/A,Unknown,N/A,9999,9999,9999,9999,9999,9999,9999,2020-06-28T15:13:10.498,1040
0,28,,0,0.50679,1.49748,1.61075,0,0,-24.2897:-41.5659:728.714,0.99,204:145 183x183,512,0.803165,closed,closed,0.99989,0.999865,none,0.999579,9999,9999,9999,9999,9999,9999,0,0,0.989958,0.98999,1,1,9999:9999,9999:9999,9999,n/a,N/A,Unknown,N/A,9999,9999,9999,9999,9999,9999,9999,2020-06-28T15:13:10.538,1080
0,29,,0,0.445542,1.73315,2.01108,0,0,-24.7552:-41.701:728.719,0.99,203:145 183x183,512,0.802362,closed,closed,0.999914,0.999918,none,0.999594,9999,9999,9999,9999,9999,9999,0,0,0.977777,0.989955,1,1,9999:9999,9999:9999,9999,n/a,N/A,Unknown,N/A,9999,9999,9999,9999,9999,9999,9999,2020-06-28T15:13:10.578,1120
0,30,,0,0.581181,1.42574,1.9362,0,0,-24.8364:-41.4521:728.723,0.99,204:146 183x183,512,0.794338,closed,closed,0.999855,0.999796,none,0.999594,9999,9999,9999,9999,9999,9999,0,0,0.989975,0.989402,1,1,9999:9999,9999:9999,9999,n/a,N/A,Unknown,N/A,9999,9999,9999,9999,9999,9999,9999,2020-06-28T15:13:10.618,1160
0,31,,0,0.499775,1.38162,1.57057,0,0,-24.9079:-41.2135:728.728,0.99,204:146 183x183,512,0.793544,closed,closed,0.999907,0.999874,none,0.999611,9999,9999,9999,9999,9999,9999,0,0,0.987443,0.989942,1,1,9999:9999,9999:9999,9999,n/a,N/A,Unknown,N/A,9999,9999,9999,9999,9999,9999,9999,2020-06-28T15:13:10.658,1200
0,32,,0,0.390136,1.48633,1.83013,0,0,-24.7138:-40.8216:728.732,0.99,204:146 183x183,512,0.79275,closed,closed,0.999839,0.999887,none,0.999611,9999,9999,9999,9999,9999,9999,0,0,0.989626,0.987759,1,1,9999:9999,9999:9999,9999,n/a,N/A,Unknown,N/A,9999,9999,9999,9999,9999,9999,9999,2020-06-28T15:13:10.698,1240
0,33,,0,0.45106,1.23284,1.64781,0,0,-24.1049:-40.4946:728.735,0.989999,205:146 183x183,512,0.791957,closed,closed,0.999782,0.999741,none,0.99961,9999,9999,9999,9999,9999,9999,0,0,0.989978,0.988416,1,1,9999:9999,9999:9999,9999,n/a,N/A,Unknown,N/A,9999,9999,9999,9999,9999,9999,9999,2020-06-28T15:13:10.738,1280
0,34,,0,0.513125,1.30798,1.491,0,0,-24.0675:-40.7348:728.739,0.99,205:145 183x183,512,0.791166,closed,closed,0.999757,0.999673,none,0.99961,9999,9999,9999,9999,9999,9999,0,0,0.987925,0.97674,1,1,9999:9999,9999:9999,9999,n/a,N/A,Unknown,N/A,9999,9999,9999,9999,9999,9999,9999,2020-06-28T15:13:10.778,1320
0,35,,0,0.592247,1.47665,1.58012,0,0,-24.0295:-40.8142:728.742,0.99,205:145 183x183,512,0.790374,closed,closed,0.926563,0.998586,none,0.99954,9999,9999,9999,9999,9999,9999,0,0,0.989871,0.824976,1,1,9999:9999,9999:9999,9999,n/a,N/A,Unknown,N/A,9999,9999,9999,9999,9999,9999,9999,2020-06-28T15:13:10.818,1360
0,36,,0,1.06303,1.01913,1.63425,0,0,-23.4738:-40.6882:728.745,0.99,205:146 183x183,512,0.789584,opened,opened,0.975306,0.998862,none,0.99954,3.94607,3.94607,7.66885,7.66885,5.24511,5.24511,2.67562,3.7065,0.989963,0.805272,0.756762,0.663046,7:-20,-50:-20,9999,n/a,N/A,Unknown,N/A,9999,9999,9999,9999,9999,9999,9999,2020-06-28T15:13:10.858,1400
0,37,,0,1.12199,0.670237,1.51196,0,0,-23.2161:-40.6614:728.748,0.99,205:145 183x183,512,0.788794,opened,opened,0.999996,1,none,0.999565,3.94442,3.94442,7.56562,7.56562,5.24513,4.37094,3.91337,4.30291,0.989962,0.987582,0.644239,0.608826,5:-21,-48:-20,9999,n/a,N/A,Unknown,N/A,9999,9999,9999,9999,9999,9999,9999,2020-06-28T15:13:10.898,1440
0,38,,0,0.555646,0.915539,1.25309,0,0,-22.9383:-40.7728:728.751,0.99,205:145 183x183,512,0.788006,opened,opened,0.999992,1,none,0.999565,3.19148,3.19148,7.21256,7.21256,5.24515,5.24515,5.33774,4.7495,0.99,0.594752,0.51475,0.568227,5:-21,-48:-20,9999,n/a,N/A,Unknown,N/A,9999,9999,9999,9999,9999,9999,9999,2020-06-28T15:13:10.938,1480
0,39,,0,0.307527,1.21944,1.15013,0,0,-22.7104:-41.0145:728.754,0.99,205:145 183x183,64,0.979899,opened,opened,0.999709,0.999999,none,0.999582,2.36209,2.36209,6.84712,6.84712,5.24517,5.24517,5.85694,4.92871,0.989998,0.883893,0.467551,0.551935,5:-22,-49:-21,9999,n/a,N/A,Unknown,N/A,9999,9999,9999,9999,9999,9999,9999,2020-06-28T15:13:10.978,1520
0,40,,0,0.276963,1.17996,1.19663,0,0,-22.8619:-41.4016:728.756,0.99,205:145 183x183,512,0.978919,opened,opened,0.999984,1,none,0.999582,3.16849,3.16849,5.30471,5.30471,5.68229,4.80809,5.70437,4.81509,0.99,0.984562,0.481421,0.562265,5:-22,-49:-21,9999,n/a,N/A,Unknown,N/A,9999,9999,9999,9999,9999,9999,9999,2020-06-28T15:13:11.018,1560
0,41,,0,0.379581,0.974144,1.22451,0,0,-22.757:-41.4045:728.759,0.99,205:146 183x183,512,0.97794,opened,opened,0.999969,1,none,0.999596,2.52584,2.52584,4.01652,4.01652,5.68231,4.80811,5.78198,4.99743,0.99,0.98881,0.474365,0.545689,4:-21,-49:-22,9999,n/a,N/A,Unknown,N/A,9999,9999,9999,9999,9999,9999,9999,2020-06-28T15:13:11.058,1600
0,42,,0,0.744061,0.867478,1.11703,0,0,-22.4772:-41.0821:728.761,0.99,205:146 183x183,512,0.976962,opened,opened,0.999899,0.999999,none,0.999596,2.70147,2.70147,2.67383,2.67383,5.68232,5.24522,6.03385,5.25538,0.99,0.986509,0.451468,0.522238,5:-21,-50:-22,9999,n/a,N/A,Unknown,N/A,9999,9999,9999,9999,9999,9999,9999,2020-06-28T15:13:11.098,1640
0,43,,0,0.916812,0.826296,1.32779,0,0,-22.1001:-40.7334:728.763,0.99,205:146 183x183,512,0.975985,opened,opened,0.999991,1,none,0.999593,3.49875,3.49875,1.82501,1.82501,5.24524,5.24524,5.83637,5.47714,0.989996,0.988726,0.469421,0.502078,5:-21,-49:-22,9999,n/a,N/A,Unknown,N/A,9999,9999,9999,9999,9999,9999,9999,2020-06-28T15:13:11.138,1680
0,44,,0,0.684777,0.89951,1.36142,0,0,-22.0573:-40.5539:728.765,0.99,205:146 183x183,512,0.975009,opened,opened,0.999986,1,none,0.999593,3.8545,3.8545,1.49497,1.49497,5.24525,4.80815,5.69851,5.39408,0.99,0.8789,0.481954,0.509629,5:-21,-49:-21,9999,n/a,N/A,Unknown,N/A,9999,9999,9999,9999,9999,9999,9999,2020-06-28T15:13:11.178,1720
0,45,,0,0.571443,0.854412,1.40709,0,0,-22.0244:-40.4815:728.767,0.99,205:146 183x183,512,0.974034,opened,opened,0.999986,1,none,0.999595,3.78958,3.78958,1.29495,1.29495,5.24527,4.80816,5.73152,5.36434,0.989729,0.99,0.478953,0.512333,5:-21,-50:-21,9999,n/a,N/A,Unknown,N/A,9999,9999,9999,9999,9999,9999,9999,2020-06-28T15:13:11.218,1760
0,46,,0,0.655033,0.494461,1.46101,0,0,-21.7749:-40.5105:728.769,0.99,205:146 183x183,512,0.97306,opened,opened,0.99999,1,none,0.999595,3.78487,3.78487,1.55968,1.55968,5.24528,4.80818,5.65689,5.68662,0.988986,0.989999,0.485737,0.483035,6:-21,-50:-20,9999,n/a,N/A,Unknown,N/A,9999,9999,9999,9999,9999,9999,9999,2020-06-28T15:13:11.258,1800
0,47,,0,0.876301,-0.236214,1.21882,0,0,-21.0583:-40.3397:728.771,0.99,206:146 183x183,512,0.972087,opened,opened,0.99998,1,none,0.999596,3.42761,3.42761,2.32085,2.32085,4.80819,5.6824,5.48718,5.79705,0.811046,0.989696,0.501166,0.472995,6:-21,-48:-20,9999,n/a,N/A,Unknown,N/A,9999,9999,9999,9999,9999,9999,9999,2020-06-28T15:13:11.298,1840
0,48,,0,1.18274,-1.0774,1.34102,0,0,-19.6687:-39.987:728.773,0.99,207:146 183x183,512,0.971115,opened,opened,0.99997,1,none,0.999596,2.61756,2.61756,3.05384,3.05384,5.24531,5.24531,5.52027,5.587,0.989549,0.989998,0.498157,0.492091,6:-21,-48:-21,9999,n/a,N/A,Unknown,N/A,9999,9999,9999,9999,9999,9999,9999,2020-06-28T15:13:11.338,1880
0,49,,0,1.21138,-1.46267,1.29729,0,0,-18.155:-39.6489:728.775,0.99,208:146 183x183,512,0.970144,opened,opened,0.999989,1,none,0.999608,2.34026,2.34026,3.49654,3.49654,5.24532,5.24532,5.49873,5.42524,0.989998,0.978155,0.500115,0.506796,7:-21,-47:-21,9999,n/a,N/A,Unknown,N/A,9999,9999,9999,9999,9999,9999,9999,2020-06-28T15:13:11.378,1920
0,50,,0,1.00364,-1.57896,1.27153,0,0,-16.3977:-38.9736:728.776,0.99,209:147 183x183,512,0.960442,opened,opened,0.999785,1,none,0.999608,2.29206,2.29206,4.18348,4.18348,5.24533,5.24533,5.29397,5.2433,0.99,0.413036,0.51873,0.523336,7:-20,-46:-20,9999,n/a,N/A,Unknown,N/A,9999,9999,9999,9999,9999,9999,9999,2020-06-28T15:13:11.418,1960
0,51,,0,1.01191,-2.00763,1.17056,0,0,-15.0327:-38.763:728.778,0.99,210:146 183x183,512,0.950838,opened,opened,0.972358,0.992334,none,0.999712,1.8442,1.8442,5.12294,5.12294,4.80823,4.80823,4.47824,4.78327,0.989999,0.980945,0.592887,0.565157,8:-20,-46:-19,9999,n/a,N/A,Unknown,N/A,9999,9999,9999,9999,9999,9999,9999,2020-06-28T15:13:11.458,2000
0,52,,0,1.00599,-3.45751,0.662364,0,0,-13.5322:-38.6084:728.779,0.983926,211:146 183x183,512,0.949887,opened,opened,0.937127,0.985049,none,0.999712,0.429495,0.429495,6.13563,6.13563,4.37113,5.24535,3.79325,4.14677,0.983925,0.966606,0.655159,0.623021,9:-19,-42:-19,9999,n/a,N/A,Unknown,N/A,9999,9999,9999,9999,9999,9999,9999,2020-06-28T15:13:11.498,2040
0,53,,0,0.719781,-4.65505,0.854074,0,0,-10.9149:-38.4637:728.781,0.98234,214:147 183x183,512,0.940388,closed,opened,0.733152,0.999877,none,0.999727,3.50287,9999,6.09371,9999,4.80825,9999,3.89454,0,0.98234,0.98201,0.645951,1,13:-19,-39:-20,9999,n/a,N/A,Unknown,N/A,9999,9999,9999,9999,9999,9999,9999,2020-06-28T15:13:11.538,2080
0,54,,0,-0.168471,-5.77433,0.724385,0,0,-8.04232:-38.8912:728.782,0.9138,217:146 183x183,512,0.930984,opened,opened,0.803853,0.999489,none,0.999727,-5.70465,-5.70465,6.29574,6.29574,4.37114,5.24537,4.31756,4.59761,0.913799,0.912025,0.607494,0.582036,17:-20,-34:-22,9999,n/a,N/A,Unknown,N/A,9999,9999,9999,9999,9999,9999,9999,2020-06-28T15:13:11.578,2120
0,55,,0,-1.33379,-8.3366,0.702125,0,0,-3.42163:-39.3493:728.783,0.844672,221:147 183x183,512,0.921675,opened,opened,0.996669,0.999511,none,0.999734,-12.1226,-12.1226,4.50048,4.50048,4.37115,5.24538,5.24476,5.33655,0.844655,0.840639,0.523204,0.514859,21:-20,-30:-22,9999,n/a,N/A,Unknown,N/A,9999,9999,9999,9999,9999,9999,9999,2020-06-28T15:13:11.618,2160
0,56,,0,-1.83406,-10.861,0.591892,0,0,1.91898:-39.9543:728.785,0.790904,225:147 183x183,512,0.912458,opened,opened,0.997514,0.998349,none,0.999734,-18.2401,-18.2401,3.60204,3.60204,4.37116,5.24539,4.73841,5.32667,0.788511,0.790784,0.569236,0.515758,24:-21,-29:-22,9999,n/a,N/A,Unknown,N/A,9999,9999,9999,9999,9999,9999,9999,2020-06-28T15:13:11.658,2200
0,57,,0,-1.60887,-13.3165,-0.20549,0,0,6.81532:-40.4623:728.786,0.659751,227:147 183x183,512,0.903333,opened,opened,0.999061,0.992346,none,0.999605,-24.5341,-24.5341,2.02272,2.02272,4.80828,5.2454,4.87433,5.57187,0.566273,0.659738,0.556879,0.493466,25:-21,-27:-21,9999,n/a,N/A,Unknown,N/A,9999,9999,9999,9999,9999,9999,9999,2020-06-28T15:13:11.698,2240
0,58,,0,-0.997524,-16.3453,-0.495282,0,0,11.9705:-40.6364:728.787,0.589761,230:148 183x183,512,0.8943,opened,opened,0.998092,0.998914,none,0.999605,-29.0752,-29.0752,0.367648,0.367648,4.37118,5.68253,4.71352,6.31348,0.143665,0.589748,0.571498,0.426047,27:-21,-24:-21,9999,n/a,N/A,Unknown,N/A,9999,9999,9999,9999,9999,9999,9999,2020-06-28T15:13:11.738,2280
0,59,,0,-1.60935,-18.1419,-0.358741,0,0,15.6282:-40.9702:728.788,0.602745,231:147 183x183,512,0.885357,opened,opened,0.999234,0.99869,none,0.998614,-29.3916,-29.3916,0.555411,0.555411,4.37118,5.68254,4.62346,6.49817,0.599171,0.602694,0.579685,0.409257,27:-21,-22:-22,9999,n/a,N/A,Unknown,N/A,9999,9999,9999,9999,9999,9999,9999,2020-06-28T15:13:11.778,2320
0,60,,0,-1.89578,-18.9585,0.171728,0,0,18.8578:-40.8806:728.789,0.680229,233:147 183x183,512,0.876503,opened,opened,0.998991,0.999085,none,0.998614,-28.7934,-28.7934,1.66247,1.66247,4.80831,5.24543,4.7274,6.21515,0.652948,0.675672,0.570236,0.434987,28:-22,-21:-22,9999,n/a,N/A,Unknown,N/A,9999,9999,9999,9999,9999,9999,9999,2020-06-28T15:13:11.818,2360
0,61,,0,-1.05535,-19.9273,0.601837,0.264023,-1.24032,21.5474:-41.0671:728.855,0.865694,234:147 183x183,512,0.875627,opened,opened,0.999251,0.999609,none,0.998242,-28.559,-28.559,1.71083,1.71083,4.37158,5.2459,4.97264,6.083,0.865641,0.780031,0.547941,0.447,30:-21,-20:-22,9999,n/a,N/A,Unknown,N/A,9999,9999,9999,9999,9999,9999,9999,2020-06-28T15:13:11.858,2400
0,62,,0,-0.821272,-19.874,0.870107,0.246232,-1.54579,23.7912:-41.1357:728.855,0.989147,236:147 183x183,512,0.866871,opened,opened,0.999722,0.999992,none,0.998242,-28.7713,-28.7713,1.86189,1.86189,4.37158,5.68306,5.28064,5.77449,0.927523,0.98856,0.519942,0.475047,32:-21,-18:-22,9999,n/a,N/A,Unknown,N/A,9999,9999,9999,9999,9999,9999,9999,2020-06-28T15:13:11.898,2440
0,63,,0,-0.410064,-20.8134,0.895523,0.235646,-1.85656,26.3435:-40.8146:728.855,0.986634,237:147 183x183,512,0.866004,opened,opened,0.998189,0.998913,none,0.997754,-28.8302,-28.8302,2.07962,2.07962,3.93443,5.2459,4.83026,5.39753,0.735,0.986595,0.560886,0.509315,32:-21,-16:-22,9999,n/a,N/A,Unknown,N/A,9999,9999,9999,9999,9999,9999,9999,2020-06-28T15:13:11.938,2480
0,64,,0,-0.896477,-23.7858,0.868106,0.217676,-2.20464,28.5752:-40.7221:728.855,0.732294,239:148 183x183,512,0.857344,opened,opened,0.947093,0.999049,none,0.997754,-29.8028,-29.8028,3.32753,3.32753,3.93443,5.2459,4.14324,4.96895,0.685979,0.729792,0.623341,0.548277,33:-20,-13:-21,9999,n/a,N/A,Unknown,N/A,9999,9999,9999,9999,9999,9999,9999,2020-06-28T15:13:11.978,2520
0,65,,0,-2.0144,-26.0554,0.381591,0.1828,-2.57731,31.2461:-40.818:728.855,0.667522,241:148 183x183,512,0.84877,closed,closed,0.999785,0.994938,none,0.995864,9999,9999,9999,9999,9999,9999,0,0,0.667521,0.667009,1,1,9999:9999,9999:9999,9999,n/a,N/A,Unknown,N/A,9999,9999,9999,9999,9999,9999,9999,2020-06-28T15:13:12.018,2560
0,66,,0,-2.97227,-26.892,-0.261383,0.13426,-2.95138,33.7684:-41.2505:728.855,0.665939,242:149 183x183,512,0.840283,closed,closed,0.99703,0.997932,none,0.995864,9999,9999,9999,9999,9999,9999,0,0,0.664847,0.665873,1,1,9999:9999,9999:9999,9999,n/a,N/A,Unknown,N/A,9999,9999,9999,9999,9999,9999,9999,2020-06-28T15:13:12.058,2600
0,67,,0,-3.69015,-27.7244,0.0307119,0.0763147,-3.32673,36.0879:-41.6029:728.855,0.858009,243:149 183x183,512,0.839442,closed,closed,0.999695,0.999318,none,0.995799,9999,9999,9999,9999,9999,9999,0,0,0.857268,0.857975,1,1,9999:9999,9999:9999,9999,n/a,N/A,Unknown,N/A,9999,9999,9999,9999,9999,9999,9999,2020-06-28T15:13:12.098,2640
0,68,,0,-3.56944,-28.5102,0.354236,0.0219004,-3.7026,38.0649:-41.9823:728.855,0.99,244:149 183x183,512,0.838603,closed,closed,0.999373,0.999873,none,0.995799,9999,9999,9999,9999,9999,9999,0,0,0.99,0.99,1,1,9999:9999,9999:9999,9999,n/a,N/A,Unknown,N/A,9999,9999,9999,9999,9999,9999,9999,2020-06-28T15:13:12.138,2680
0,69,,0,-3.62555,-28.4211,0.448065,-0.0317385,-4.06611,39.6451:-42.2314:728.855,0.99,245:149 183x183,512,0.837765,closed,closed,0.99939,0.999003,none,0.995633,9999,9999,9999,9999,9999,9999,0,0,0.989823,0.989999,1,1,9999:9999,9999:9999,9999,n/a,N/A,Unknown,N/A,9999,9999,9999,9999,9999,9999,9999,2020-06-28T15:13:12.178,2720
0,70,,0,-3.8632,-28.4907,0.679522,-0.0872669,-4.42009,40.2894:-42.9425:728.855,0.986946,246:148 183x183,512,0.829387,closed,closed,0.99948,0.999396,none,0.995633,9999,9999,9999,9999,9999,9999,0,0,0.986941,0.986946,1,1,9999:9999,9999:9999,9999,n/a,N/A,Unknown,N/A,9999,9999,9999,9999,9999,9999,9999,2020-06-28T15:13:12.218,2760
0,71,,0,-4.80542,-28.5412,1.05593,-0.154669,-4.76468,40.8404:-43.4594:728.855,0.988928,247:148 183x183,512,0.828557,closed,closed,0.99922,0.999878,none,0.995628,9999,9999,9999,9999,9999,9999,0,0,0.988923,0.988926,1,1,9999:9999,9999:9999,9999,n/a,N/A,Unknown,N/A,9999,9999,9999,9999,9999,9999,9999,2020-06-28T15:13:12.258,2800
0,72,,0,-5.23641,-28.6923,1.13067,-0.226243,-5.10169,41.9278:-44.1032:728.855,0.988772,249:148 183x183,512,0.820272,closed,closed,0.999128,0.999199,none,0.995628,9999,9999,9999,9999,9999,9999,0,0,0.988678,0.988764,1,1,9999:9999,9999:9999,9999,n/a,N/A,Unknown,N/A,9999,9999,9999,9999,9999,9999,9999,2020-06-28T15:13:12.298,2840
0,73,,0,-4.9712,-29.7125,0.942539,-0.292145,-5.4435,43.2697:-44.2634:728.855,0.98704,250:148 183x183,512,0.819452,closed,closed,0.9989,0.997873,none,0.995147,9999,9999,9999,9999,9999,9999,0,0,0.986005,0.987039,1,1,9999:9999,9999:9999,9999,n/a,N/A,Unknown,N/A,9999,9999,9999,9999,9999,9999,9999,2020-06-28T15:13:12.338,2880
0,74,,0,-4.91915,-30.4413,0.131842,-0.355529,-5.78594,45.3916:-43.4407:728.855,0.988729,251:149 183x183,512,0.811257,closed,closed,0.999696,0.995444,none,0.995147,9999,9999,9999,9999,9999,9999,0,0,0.959356,0.988729,1,1,9999:9999,9999:9999,9999,n/a,N/A,Unknown,N/A,9999,9999,9999,9999,9999,9999,9999,2020-06-28T15:13:12.378,2920
0,75,,0,-5.37765,-31.0044,-0.0220244,-0.423395,-6.12673,48.0557:-43.8771:728.855,0.984612,252:149 183x183,512,0.810446,closed,closed,0.999466,0.994511,none,0.995129,9999,9999,9999,9999,9999,9999,0,0,0.957882,0.984611,1,1,9999:9999,9999:9999,9999,n/a,N/A,Unknown,N/A,9999,9999,9999,9999,9999,9999,9999,2020-06-28T15:13:12.418,2960
0,76,,0,-6.39647,-31.9612,0.41904,-0.503036,-6.47119,50.4065:-44.1904:728.855,0.983802,253:149 183x183,512,0.809635,closed,closed,0.999734,0.966657,none,0.995129,9999,9999,9999,9999,9999,9999,0,0,0.952922,0.983802,1,1,9999:9999,9999:9999,9999,n/a,N/A,Unknown,N/A,9999,9999,9999,9999,9999,9999,9999,2020-06-28T15:13:12.458,3000
0,77,,0,-6.74476,-32.5289,0.737922,-0.585164,-6.81405,45.051:-44.711:729.197,0.978011,225:149 178x178,64,0.783624,closed,closed,0.998643,0.975631,none,0.995104,9999,9999,9999,9999,9999,9999,0,0,0.976389,0.969296,1,1,9999:9999,9999:9999,9999,n/a,N/A,Unknown,N/A,9999,9999,9999,9999,9999,9999,9999,2020-06-28T15:13:12.498,3040
0,78,,0,-4.37609,-33.6187,0.70309,-0.634397,-7.16217,41.6741:-45.0552:729.538,0.921782,232:150 178x178,512,0.775787,opened,opened,0.99999,0.992512,none,0.995104,-30.012,-30.012,3.91986,3.91986,3.06297,5.68838,2.10039,5.22128,0.000384131,0.921781,0.809055,0.525338,52:-14,17:-18,9999,n/a,N/A,Unknown,N/A,9999,9999,9999,9999,9999,9999,9999,2020-06-28T15:13:12.538,3080
0,79,,0,-2.44144,-35.6491,-0.269269,-0.657564,-7.52738,38.3072:-43.98:729.879,0.900215,235:151 178x178,512,0.76803,opened,opened,0.999898,0.997113,none,0.97808,-29.9524,-29.9524,4.67379,4.67379,2.62663,4.8155,1.44668,4.62678,0.0176708,0.900213,0.868483,0.579384,51:-14,17:-18,9999,n/a,N/A,Unknown,N/A,9999,9999,9999,9999,9999,9999,9999,2020-06-28T15:13:12.578,3120
0,80,,0,-4.03189,-36.4123,0.183345,-0.700277,-7.89302,34.1771:-42.8972:730.22,0.879492,235:150 178x178,512,0.767262,opened,opened,0.999984,0.997692,none,0.97808,9999,-38.3751,9999,8.51803,9999,5.25573,5.6113,4.69748,0.861902,0.879492,0.489882,0.572956,9999:9999,9999:9999,9999,n/a,N/A,Unknown,N/A,9999,9999,9999,9999,9999,9999,9999,2020-06-28T15:13:12.618,3160
0,81,,0,-5.3468,-36.3898,0.766173,-0.758359,-8.24922,37.4607:-41.847:730.562,0.888814,236:151 178x178,512,0.759589,opened,opened,0.999964,0.965868,none,0.974247,9999,-40.2054,9999,8.19692,9999,5.69636,5.5241,5.00446,0.871038,0.888813,0.497809,0.545049,9999:9999,9999:9999,9999,n/a,N/A,Unknown,N/A,9999,9999,9999,9999,9999,9999,9999,2020-06-28T15:13:12.658,3200
0,82,,0,-4.40147,-35.7797,-0.103397,-0.803335,-8.58911,38.8353:-41.4972:730.903,0.977555,237:151 178x178,512,0.758829,opened,opened,0.999995,0.928095,none,0.974247,9999,-40.9823,9999,7.69204,9999,5.26064,5.67225,4.74315,0.958004,0.977551,0.484341,0.568805,9999:9999,9999:9999,9999,n/a,N/A,Unknown,N/A,9999,9999,9999,9999,9999,9999,9999,2020-06-28T15:13:12.698,3240
0,83,,0,-3.44694,-35.5838,0.436105,-0.835574,-8.91831,39.8269:-41.6966:731.244,0.989661,238:150 178x178,512,0.751241,opened,opened,0.999999,0.982845,none,0.970717,9999,-41.9422,9999,8.48335,9999,5.26309,5.78559,4.63784,0.969867,0.98966,0.474037,0.578378,9999:9999,9999:9999,9999,n/a,N/A,Unknown,N/A,9999,9999,9999,9999,9999,9999,9999,2020-06-28T15:13:12.738,3280
0,84,,0,-4.4641,-36.2669,1.32117,-0.879292,-9.24781,41.3407:-42.0673:731.585,0.989854,239:151 178x178,512,0.743729,opened,opened,0.999976,0.980555,none,0.970717,9999,-41.6019,9999,8.19316,9999,5.26555,5.51438,4.70595,0.970057,0.989833,0.498693,0.572186,9999:9999,9999:9999,9999,n/a,N/A,Unknown,N/A,9999,9999,9999,9999,9999,9999,9999,2020-06-28T15:13:12.778,3320
0,85,,0,-5.55335,-36.2011,1.1116,-0.934935,-9.56868,42.722:-42.2131:731.926,0.989092,239:152 178x178,512,0.742985,opened,opened,0.999975,0.958149,none,0.95918,9999,-41.4946,9999,8.50265,9999,5.268,5.34697,4.18945,0.96931,0.989092,0.513912,0.619141,9999:9999,9999:9999,9999,n/a,N/A,Unknown,N/A,9999,9999,9999,9999,9999,9999,9999,2020-06-28T15:13:12.818,3360
0,86,,0,-6.63737,-36.4526,0.801076,-1.00202,-9.88497,43.8049:-42.4607:732.268,0.971899,240:151 178x178,512,0.735555,opened,opened,0.999993,0.948418,none,0.95918,9999,-41.253,9999,9.72593,9999,4.83126,5.36734,4.00488,0.952461,0.970848,0.51206,0.63592,9999:9999,9999:9999,9999,n/a,N/A,Unknown,N/A,9999,9999,9999,9999,9999,9999,9999,2020-06-28T15:13:12.858,3400
0,87,,0,-6.21224,-36.5118,-0.190614,-1.06261,-10.1946,44.8962:-42.79:732.609,0.987189,241:151 178x178,512,0.73482,opened,opened,0.999978,0.967825,none,0.956464,9999,-40.8806,9999,10.352,9999,4.83351,5.74051,4.07651,0.967445,0.981867,0.478136,0.629408,9999:9999,9999:9999,9999,n/a,N/A,Unknown,N/A,9999,9999,9999,9999,9999,9999,9999,2020-06-28T15:13:12.898,3440
0,88,,0,-4.12993,-37.0262,-1.63148,-1.09786,-10.503,46.2732:-42.8146:732.95,0.982053,242:151 178x178,512,0.734085,opened,opened,0.999972,0.939131,none,0.956464,9999,-40.8706,9999,10.5109,9999,3.95653,5.57164,3.35826,0.962412,0.967499,0.493488,0.694703,9999:9999,9999:9999,9999,n/a,N/A,Unknown,N/A,9999,9999,9999,9999,9999,9999,9999,2020-06-28T15:13:12.938,3480
0,89,,0,-4.26072,-38.6313,-1.36888,-1.1338,-10.8226,47.2946:-43.2457:733.291,0.982114,242:150 178x178,512,0.733351,opened,opened,0.999984,0.924685,none,0.949374,9999,-41.8974,9999,11.0314,9999,4.39819,5.68695,3.00359,0.962472,0.982114,0.483004,0.726946,9999:9999,9999:9999,9999,n/a,N/A,Unknown,N/A,9999,9999,9999,9999,9999,9999,9999,2020-06-28T15:13:12.978,3520
0,90,,0,-5.16329,-39.95,-1.10062,-1.17908,-11.1499,48.7706:-43.4699:733.632,0.963975,244:151 178x178,512,0.726017,opened,opened,0.99996,0.924685,none,0.949374,9999,-42.7963,9999,11.5455,9999,4.84026,5.75357,3.65904,0.944695,0.963861,0.476948,0.66736,9999:9999,9999:9999,9999,n/a,N/A,Unknown,N/A,9999,9999,9999,9999,9999,9999,9999,2020-06-28T15:13:13.018,3560
0,91,,0,-5.37801,-42.846,-1.98292,-1.17908,-11.1499,50.0109:-43.5995:733.974,0.750627,244:150 178x178,512,0.725291,opened,opened,0.999977,0.732079,none,0.943697,9999,-44.0077,9999,11.9277,9999,4.84251,9999,3.54589,0,0.750627,9999,0.677647,9999:9999,9999:9999,9999,n/a,N/A,Unknown,N/A,9999,9999,9999,9999,9999,9999,9999,2020-06-28T15:13:13.058,3600
0,92,,0,-5.6116,-43.4089,-1.6558,-1.17908,-11.1499,50.8697:-43.8401:734.315,0.845984,245:151 178x178,512,0.718038,opened,opened,0.99994,0.912136,none,0.943697,9999,-45.1755,9999,12.0806,9999,4.84476,9999,3.64327,0,0.845984,9999,0.668794,9999:9999,9999:9999,9999,n/a,N/A,Unknown,N/A,9999,9999,9999,9999,9999,9999,9999,2020-06-28T15:13:13.098,3640
0,93,,0,-6.61993,-42.0287,-1.54399,-1.17908,-11.1499,52.3915:-43.8576:734.656,0.923156,247:151 178x178,512,0.710858,opened,opened,0.999996,0.912136,none,0.937722,9999,-46.3027,9999,11.6474,9999,4.84701,9999,4.14293,0,0.923153,9999,0.62337,9999:9999,9999:9999,9999,n/a,N/A,Unknown,N/A,9999,9999,9999,9999,9999,9999,9999,2020-06-28T15:13:13.138,3680
0,94,,0,-8.03201,-44.6649,-2.34966,-1.17908,-11.1499,53.4007:-43.7973:734.997,0.861356,247:150 178x178,512,0.710147,opened,opened,0.999994,0.912136,none,0.937722,9999,-47.8372,9999,11.4815,9999,4.84926,9999,3.80194,0,0.861356,9999,0.654369,9999:9999,9999:9999,9999,n/a,N/A,Unknown,N/A,9999,9999,9999,9999,9999,9999,9999,2020-06-28T15:13:13.178,3720
0,95,,0,-8.30841,-45.4276,-2.9538,-1.17908,-11.1499,54.5184:-43.7295:735.339,0.930374,248:150 178x178,512,0.709437,opened,opened,0.999995,0.912136,none,0.937237,9999,-49.1776,9999,11.6608,9999,5.29256,9999,3.63267,0,0.930374,9999,0.669758,9999:9999,9999:9999,9999,n/a,N/A,Unknown,N/A,9999,9999,9999,9999,9999,9999,9999,2020-06-28T15:13:13.218,3760
0,96,,0,-8.04158,-45.1231,-2.88094,-1.17908,-11.1499,55.6362:-43.5809:735.68,0.902416,248:150 178x178,512,0.708728,opened,opened,0.999997,0.912136,none,0.937237,9999,-49.8193,9999,11.4594,9999,4.85377,9999,3.7542,0,0.902416,9999,0.658709,9999:9999,9999:9999,9999,n/a,N/A,Unknown,N/A,9999,9999,9999,9999,9999,9999,9999,2020-06-28T15:13:13.258,3800
0,97,,0,-7.34202,-46.1543,-2.48336,-1.17908,-11.1499,56.3295:-43.4741:736.021,0.953779,249:150 178x178,512,0.708019,opened,opened,0.999935,0.912136,none,0.937217,9999,-51.6256,9999,11.5559,9999,4.41456,9999,3.3181,0,0.953779,9999,0.698354,9999:9999,9999:9999,9999,n/a,N/A,Unknown,N/A,9999,9999,9999,9999,9999,9999,9999,2020-06-28T15:13:13.298,3840
0,98,,0,-6.81525,-44.7439,-2.55889,-1.17908,-11.1499,56.8952:-43.5716:736.362,0.981037,249:150 178x178,512,0.707311,opened,opened,0.999659,0.912136,none,0.937217,9999,-54.2107,9999,12.2213,9999,4.41661,9999,3.03715,0,0.981037,9999,0.723895,9999:9999,9999:9999,9999,n/a,N/A,Unknown,N/A,9999,9999,9999,9999,9999,9999,9999,2020-06-28T15:13:13.338,3880
0,99,,0,-6.87574,-44.8899,-2.59378,-1.17908,-11.1499,56.9827:-43.5935:736.703,0.986507,249:150 178x178,512,0.706604,opened,opened,0.999876,0.912136,none,0.937413,9999,-54.2339,9999,12.3407,9999,4.86052,9999,3.51417,0,0.986507,9999,0.68053,9999:9999,9999:9999,9999,n/a,N/A,Unknown,N/A,9999,9999,9999,9999,9999,9999,9999,2020-06-28T15:13:13.378,3920
0,100,,0,-8.18574,-46.7111,-1.8402,-1.17908,-11.1499,57.4497:-43.4507:737.045,0.986369,250:149 178x178,512,0.699538,opened,opened,0.999942,0.912136,none,0.937413,9999,-54.3338,9999,12.0429,9999,4.86277,9999,3.67454,0,0.986368,9999,0.665951,9999:9999,9999:9999,9999,n/a,N/A,Unknown,N/A,9999,9999,9999,9999,9999,9999,9999,2020-06-28T15:13:13.418,3960
0,101,,0,-8.64053,-46.4938,-1.60776,-1.17908,-11.1499,57.9776:-43.7605:737.386,0.986999,251:150 178x178,512,0.692542,opened,opened,0.999833,0.912136,none,0.93345,9999,-56.2362,9999,12.3453,9999,4.86502,9999,3.51129,0,0.986997,9999,0.680791,9999:9999,9999:9999,9999,n/a,N/A,Unknown,N/A,9999,9999,9999,9999,9999,9999,9999,2020-06-28T15:13:13.458,4000
0,102,,0,-9.89707,-46.7247,-2.14227,-1.17908,-11.1499,58.9738:-43.9843:737.727,0.933305,252:149 178x178,512,0.685617,opened,opened,0.999729,0.912136,none,0.93345,9999,-56.1915,9999,12.2746,9999,4.42479,9999,3.59679,0,0.933284,9999,0.673019,9999:9999,9999:9999,9999,n/a,N/A,Unknown,N/A,9999,9999,9999,9999,9999,9999,9999,2020-06-28T15:13:13.498,4040
0,103,,0,-9.08007,-47.3457,-2.66768,-1.17908,-11.1499,60.4209:-43.7128:738.068,0.920996,253:150 178x178,512,0.678761,opened,opened,0.999987,0.912136,none,0.932439,9999,-54.44,9999,11.8277,9999,4.42684,9999,3.16633,0,0.920996,9999,0.712152,9999:9999,9999:9999,9999,n/a,N/A,Unknown,N/A,9999,9999,9999,9999,9999,9999,9999,2020-06-28T15:13:13.538,4080
0,104,,0,-7.27768,-47.8577,-2.8124,-1.17908,-11.1499,61.0939:-43.9383:738.409,0.938004,253:150 178x178,512,0.678082,opened,opened,0.999855,0.912136,none,0.932439,9999,-54.8765,9999,12.0964,9999,4.42889,9999,2.81209,0,0.938004,9999,0.744356,9999:9999,9999:9999,9999,n/a,N/A,Unknown,N/A,9999,9999,9999,9999,9999,9999,9999,2020-06-28T15:13:13.578,4120
0,105,,0,-9.46823,-47.5639,-2.16724,-1.17908,-11.1499,62.569:-43.7161:738.751,0.916418,255:149 178x178,512,0.671301,opened,opened,0.999431,0.912136,none,0.931806,9999,-55.1443,9999,12.3315,9999,4.87403,9999,3.18254,0,0.916418,9999,0.710679,9999:9999,9999:9999,9999,n/a,N/A,Unknown,N/A,9999,9999,9999,9999,9999,9999,9999,2020-06-28T15:13:13.618,4160
0,106,,0,-9.34024,-48.2318,-2.02642,-1.17908,-11.1499,63.4451:-43.355:739.092,0.917421,255:150 178x178,512,0.67063,opened,opened,0.999957,0.912136,none,0.931806,9999,-52.7242,9999,12.1282,9999,4.43298,9999,3.27604,0,0.917421,9999,0.702178,9999:9999,9999:9999,9999,n/a,N/A,Unknown,N/A,9999,9999,9999,9999,9999,9999,9999,2020-06-28T15:13:13.658,4200
0,107,,0,-7.68332,-49.7148,-2.77867,-1.17908,-11.1499,64.0868:-43.7185:739.433,0.976573,256:150 178x178,512,0.669959,opened,opened,0.999712,0.912136,none,0.930864,9999,-52.3736,9999,12.5838,9999,4.43503,9999,3.43759,0,0.976563,9999,0.687492,9999:9999,9999:9999,9999,n/a,N/A,Unknown,N/A,9999,9999,9999,9999,9999,9999,9999,2020-06-28T15:13:13.698,4240
0,108,,0,-6.87075,-49.0846,-3.5564,-1.17908,-11.1499,65.5537:-43.6765:739.774,0.977747,256:150 178x178,512,0.669289,opened,unknown,0.841902,0.929818,none,0.930864,9999,-51.6923,9999,14.0047,9999,4.43707,9999,2.93563,0,0.976767,9999,0.733125,9999:9999,9999:9999,9999,n/a,N/A,Unknown,N/A,9999,9999,9999,9999,9999,9999,9999,2020-06-28T15:13:13.738,4280
0,109,,0,-6.47309,-49.4285,-3.4063,-1.17908,-11.1499,66.2723:-43.6773:740.115,0.968727,257:150 178x178,512,0.66862,closed,unknown,0.849242,0.934658,none,0.928946,9999,9999,9999,9999,9999,9999,9999,0,0,0.968673,9999,1,9999:9999,9999:9999,9999,n/a,N/A,Unknown,N/A,9999,9999,9999,9999,9999,9999,9999,2020-06-28T15:13:13.778,4320
0,110,,0,-6.43791,-50.2606,-3.86955,-1.17908,-11.1499,67.1051:-43.9296:740.457,0.989979,257:150 178x178,512,0.667951,opened,unknown,0.845561,1,none,0.928946,9999,-51.6931,9999,13.6927,9999,3.99705,9999,2.55968,0,0.980706,9999,0.767302,9999:9999,9999:9999,9999,n/a,N/A,Unknown,N/A,9999,9999,9999,9999,9999,9999,9999,2020-06-28T15:13:13.818,4360
0,111,,0,-7.33825,-50.4681,-3.97784,-1.17908,-11.1499,67.7586:-44.0894:740.798,0.989995,257:149 178x178,512,0.667283,opened,unknown,0.999655,1,none,0.919896,9999,-51.3391,9999,14.5597,9999,4.44321,9999,2.79508,0,0.989955,9999,0.745902,9999:9999,9999:9999,9999,n/a,N/A,Unknown,N/A,9999,9999,9999,9999,9999,9999,9999,2020-06-28T15:13:13.858,4400
0,112,,0,-8.1672,-50.0071,-2.47708,-1.17908,-11.1499,68.0153:-43.9924:741.139,0.989676,258:150 178x178,512,0.660611,opened,unknown,0.999786,1,none,0.919896,9999,-52.3357,9999,15.0936,9999,4.44526,9999,3.67961,0,0.989657,9999,0.66549,9999:9999,9999:9999,9999,n/a,N/A,Unknown,N/A,9999,9999,9999,9999,9999,9999,9999,2020-06-28T15:13:13.898,4440
0,113,,0,-8.89303,-50.3323,-1.54501,-1.17908,-11.1499,67.85:-44.2858:741.48,0.984804,257:149 178x178,512,0.654004,opened,unknown,0.999447,1,none,0.915397,9999,-51.3773,9999,14.4698,9999,4.44731,9999,4.18385,0,0.984707,9999,0.61965,9999:9999,9999:9999,9999,n/a,N/A,Unknown,N/A,9999,9999,9999,9999,9999,9999,9999,2020-06-28T15:13:13.938,4480
0,114,,0,-9.61849,-50.0833,-1.92464,-1.17908,-11.1499,67.8239:-44.1213:741.821,0.986214,257:149 178x178,512,0.65335,opened,unknown,0.997898,1,none,0.915397,9999,-52.5895,9999,12.338,9999,4.00442,9999,3.84142,0,0.986191,9999,0.65078,9999:9999,9999:9999,9999,n/a,N/A,Unknown,N/A,9999,9999,9999,9999,9999,9999,9999,2020-06-28T15:13:13.978,4520
0,115,,0,-9.01347,-48.8543,-2.57734,-1.17908,-11.1499,67.6182:-44.0464:742.163,0.989858,257:149 178x178,512,0.652697,opened,unknown,0.999938,0.867024,none,0.913748,9999,-51.7592,9999,10.993,9999,4.4514,9999,4.12582,0,0.989858,9999,0.624925,9999:9999,9999:9999,9999,n/a,N/A,Unknown,N/A,9999,9999,9999,9999,9999,9999,9999,2020-06-28T15:13:14.018,4560
0,116,,0,-9.13602,-48.7918,-2.19374,-1.17908,-11.1499,67.4937:-44.2453:742.504,0.989915,257:149 178x178,512,0.652044,opened,unknown,0.999759,0.867024,none,0.913748,9999,-50.7405,9999,8.80191,9999,4.45345,9999,4.08332,0,0.989913,9999,0.628789,9999:9999,9999:9999,9999,n/a,N/A,Unknown,N/A,9999,9999,9999,9999,9999,9999,9999,2020-06-28T15:13:14.058,4600
0,117,,0,-8.75294,-48.8543,-2.35114,-1.17908,-11.1499,67.2133:-44.1659:742.845,0.989861,256:149 178x178,512,0.651392,opened,unknown,0.999485,0.867024,none,0.912109,9999,-50.1169,9999,7.70504,9999,4.45549,9999,3.88268,0,0.989845,9999,0.647029,9999:9999,9999:9999,9999,n/a,N/A,Unknown,N/A,9999,9999,9999,9999,9999,9999,9999,2020-06-28T15:13:14.098,4640
0,118,,0,-7.49671,-48.498,-2.96787,-1.17908,-11.1499,66.9706:-44.3015:743.186,0.989853,256:150 178x178,512,0.650741,opened,unknown,0.999901,0.867024,none,0.912109,9999,-49.8461,9999,7.96292,9999,4.01179,9999,3.71378,0,0.98825,9999,0.662384,9999:9999,9999:9999,9999,n/a,N/A,Unknown,N/A,9999,9999,9999,9999,9999,9999,9999,2020-06-28T15:13:14.138,4680
0,119,,0,-7.48025,-49.5262,-2.38316,-1.17908,-11.1499,67.0883:-44.2075:743.528,0.98984,256:149 178x178,512,0.65009,opened,unknown,0.999901,0.912033,none,0.928162,9999,-49.2419,9999,9.86542,9999,4.45959,9999,3.16418,0,0.989816,9999,0.712347,9999:9999,9999:9999,9999,n/a,N/A,Unknown,N/A,9999,9999,9999,9999,9999,9999,9999,2020-06-28T15:13:14.178,4720
0,120,,0,-6.65605,-49.8258,-1.95921,-1.17908,-11.1499,66.896:-44.0951:743.869,0.982438,256:150 178x178,512,0.64944,closed,unknown,0.999949,0.995169,none,0.928162,9999,9999,9999,9999,9999,9999,9999,0,0,0.982438,9999,1,9999:9999,9999:9999,9999,n/a,N/A,Unknown,N/A,9999,9999,9999,9999,9999,9999,9999,2020-06-28T15:13:14.218,4760
0,121,,0,-5.81559,-48.8898,-2.6808,-1.17908,-11.1499,67.1597:-43.9858:744.21,0.989857,256:150 178x178,512,0.648791,closed,unknown,0.999885,0.994213,none,0.931787,9999,9999,9999,9999,9999,9999,9999,0,0,0.989825,9999,1,9999:9999,9999:9999,9999,n/a,N/A,Unknown,N/A,9999,9999,9999,9999,9999,9999,9999,2020-06-28T15:13:14.258,4800
0,122,,0,-6.36731,-49.9351,-2.50135,-1.17908,-11.1499,67.5387:-44.0886:744.551,0.988411,257:149 178x178,512,0.642303,closed,unknown,0.999915,0.947194,none,0.931787,9999,9999,9999,9999,9999,9999,9999,0,0,0.988404,9999,1,9999:9999,9999:9999,9999,n/a,N/A,Unknown,N/A,9999,9999,9999,9999,9999,9999,9999,2020-06-28T15:13:14.298,4840
0,123,,0,-6.44517,-50.2167,-2.20913,-1.17908,-11.1499,67.5818:-43.9312:744.892,0.989932,256:150 178x178,512,0.63588,closed,unknown,0.999591,1,none,0.935203,9999,9999,9999,9999,9999,9999,9999,0,0,0.989622,9999,1,9999:9999,9999:9999,9999,n/a,N/A,Unknown,N/A,9999,9999,9999,9999,9999,9999,9999,2020-06-28T15:13:14.338,4880
0,124,,0,-5.67238,-49.8337,-2.8207,-1.17908,-11.1499,67.6833:-43.8063:745.234,0.989999,256:151 178x178,512,0.635244,closed,unknown,0.999939,0.988637,none,0.935203,9999,9999,9999,9999,9999,9999,9999,0,0,0.989998,9999,1,9999:9999,9999:9999,9999,n/a,N/A,Unknown,N/A,9999,9999,9999,9999,9999,9999,9999,2020-06-28T15:13:14.378,4920
0,125,,0,-4.24917,-49.7352,-2.48338,-1.17908,-11.1499,67.9001:-43.5648:745.575,0.988056,257:150 178x178,512,0.628892,closed,unknown,0.999959,0.995248,none,0.94662,9999,9999,9999,9999,9999,9999,9999,0,0,0.980447,9999,1,9999:9999,9999:9999,9999,n/a,N/A,Unknown,N/A,9999,9999,9999,9999,9999,9999,9999,2020-06-28T15:13:14.418,4960
0,126,,0,-5.15683,-49.7482,-2.12292,-1.17908,-11.1499,67.6156:-43.4023:745.916,0.98525,256:150 178x178,512,0.628263,closed,unknown,0.999944,0.996591,none,0.94662,9999,9999,9999,9999,9999,9999,9999,0,0,0.985249,9999,1,9999:9999,9999:9999,9999,n/a,N/A,Unknown,N/A,9999,9999,9999,9999,9999,9999,9999,2020-06-28T15:13:14.458,5000
0,127,,0,-5.61813,-50.2745,-2.13266,-1.17908,-11.1499,67.7739:-43.4814:746.257,0.985866,257:150 178x178,512,0.627635,closed,unknown,0.999988,1,none,0.949128,9999,9999,9999,9999,9999,9999,9999,0,0,0.985579,9999,1,9999:9999,9999:9999,9999,n/a,N/A,Unknown,N/A,9999,9999,9999,9999,9999,9999,9999,2020-06-28T15:13:14.498,5040
0,128,,0,-4.00147,-50.731,-2.26278,-1.17908,-11.1499,67.9748:-43.531:746.598,0.986163,257:150 178x178,512,0.627007,closed,unknown,0.999967,1,none,0.949128,9999,9999,9999,9999,9999,9999,9999,0,0,0.959145,9999,1,9999:9999,9999:9999,9999,n/a,N/A,Unknown,N/A,9999,9999,9999,9999,9999,9999,9999,2020-06-28T15:13:14.538,5080
0,129,,0,-4.48558,-50.2348,-2.34445,-1.17908,-11.1499,67.7779:-43.7993:746.94,0.9855,257:150 178x178,512,0.62638,closed,unknown,0.999961,1,none,0.955928,9999,9999,9999,9999,9999,9999,9999,0,0,0.976207,9999,1,9999:9999,9999:9999,9999,n/a,N/A,Unknown,N/A,9999,9999,9999,9999,9999,9999,9999,2020-06-28T15:13:14.578,5120
0,130,,0,-4.6174,-49.6589,-2.01631,-1.17908,-11.1499,68.0826:-43.6242:747.281,0.987645,257:150 178x178,512,0.625754,closed,unknown,0.999894,0.991527,none,0.955928,9999,9999,9999,9999,9999,9999,9999,0,0,0.987638,9999,1,9999:9999,9999:9999,9999,n/a,N/A,Unknown,N/A,9999,9999,9999,9999,9999,9999,9999,2020-06-28T15:13:14.618,5160
0,131,,0,-3.62951,-50.1861,-2.0761,-1.17908,-11.1499,68.0899:-43.4296:747.622,0.99,257:150 178x178,512,0.625128,closed,unknown,0.999936,1,none,0.961193,9999,9999,9999,9999,9999,9999,9999,0,0,0.978928,9999,1,9999:9999,9999:9999,9999,n/a,N/A,Unknown,N/A,9999,9999,9999,9999,9999,9999,9999,2020-06-28T15:13:14.658,5200
0,132,,0,-5.20725,-50.2892,-2.58454,-1.17908,-11.1499,67.8704:-43.5091:747.963,0.980502,256:150 178x178,512,0.624503,closed,unknown,0.999967,1,none,0.961193,9999,9999,9999,9999,9999,9999,9999,0,0,0.980483,9999,1,9999:9999,9999:9999,9999,n/a,N/A,Unknown,N/A,9999,9999,9999,9999,9999,9999,9999,2020-06-28T15:13:14.698,5240
0,133,,0,-5.46348,-49.9454,-2.0408,-1.17908,-11.1499,68.0127:-43.2907:748.305,0.982059,257:150 178x178,512,0.623878,closed,unknown,0.999921,0.994511,none,0.967018,9999,9999,9999,9999,9999,9999,9999,0,0,0.981458,9999,1,9999:9999,9999:9999,9999,n/a,N/A,Unknown,N/A,9999,9999,9999,9999,9999,9999,9999,2020-06-28T15:13:14.738,5280
0,134,,0,-5.08259,-49.3987,-1.74781,-1.17908,-11.1499,67.4891:-43.5103:748.646,0.973989,256:150 178x178,512,0.623254,closed,unknown,0.999956,0.993731,none,0.967018,9999,9999,9999,9999,9999,9999,9999,0,0,0.967041,9999,1,9999:9999,9999:9999,9999,n/a,N/A,Unknown,N/A,9999,9999,9999,9999,9999,9999,9999,2020-06-28T15:13:14.778,5320
0,135,,0,-5.79815,-49.9511,-3.14652,-1.17908,-11.1499,67.2538:-43.501:748.987,0.979345,256:151 178x178,512,0.622631,closed,unknown,0.999935,0.984202,none,0.967269,9999,9999,9999,9999,9999,9999,9999,0,0,0.979345,9999,1,9999:9999,9999:9999,9999,n/a,N/A,Unknown,N/A,9999,9999,9999,9999,9999,9999,9999,2020-06-28T15:13:14.818,5360
0,136,,0,-4.1916,-50.5005,-3.29776,-1.17908,-11.1499,67.4341:-43.4331:749.328,0.97471,257:150 178x178,512,0.616405,closed,unknown,0.999735,1,none,0.967269,9999,9999,9999,9999,9999,9999,9999,0,0,0.974696,9999,1,9999:9999,9999:9999,9999,n/a,N/A,Unknown,N/A,9999,9999,9999,9999,9999,9999,9999,2020-06-28T15:13:14.858,5400
0,137,,0,-3.58413,-49.3657,-2.95448,-1.17908,-11.1499,66.8992:-43.7088:749.328,0.988382,256:150 178x178,512,0.615788,closed,unknown,0.999846,0.993359,none,0.967277,9999,9999,9999,9999,9999,9999,9999,0,0,0.982628,9999,1,9999:9999,9999:9999,9999,n/a,N/A,Unknown,N/A,9999,9999,9999,9999,9999,9999,9999,2020-06-28T15:13:14.898,5440
0,138,,0,-4.18639,-49.7675,-3.96058,-1.17908,-11.1499,66.7887:-43.7059:749.328,0.988876,256:150 178x178,512,0.615173,closed,unknown,0.999871,0.968898,none,0.967277,9999,9999,9999,9999,9999,9999,9999,0,0,0.988699,9999,1,9999:9999,9999:9999,9999,n/a,N/A,Unknown,N/A,9999,9999,9999,9999,9999,9999,9999,2020-06-28T15:13:14.938,5480
0,139,,0,-5.33167,-49.7748,-4.09504,-1.17908,-11.1499,66.6114:-43.7288:749.328,0.988545,255:150 178x178,512,0.614557,closed,unknown,0.999918,0.99446,none,0.968731,9999,9999,9999,9999,9999,9999,9999,0,0,0.687334,9999,1,9999:9999,9999:9999,9999,n/a,N/A,Unknown,N/A,9999,9999,9999,9999,9999,9999,9999,2020-06-28T15:13:14.978,5520
0,140,,0,-4.98569,-49.4341,-3.20966,-1.17908,-11.1499,65.8631:-44.0628:749.328,0.98851,256:150 178x178,512,0.613943,closed,unknown,0.999717,0.979609,none,0.968731,9999,9999,9999,9999,9999,9999,9999,0,0,0.884313,9999,1,9999:9999,9999:9999,9999,n/a,N/A,Unknown,N/A,9999,9999,9999,9999,9999,9999,9999,2020-06-28T15:13:15.018,5560
0,141,,0,-3.67971,-50.0151,-2.75286,-1.17908,-11.1499,65.9354:-43.6043:749.328,0.989619,256:151 178x178,512,0.613329,closed,unknown,0.999493,1,none,0.972737,9999,9999,9999,9999,9999,9999,9999,0,0,0.989588,9999,1,9999:9999,9999:9999,9999,n/a,N/A,Unknown,N/A,9999,9999,9999,9999,9999,9999,9999,2020-06-28T15:13:15.058,5600
0,142,,0,-4.09341,-49.2056,-3.33754,-1.17908,-11.1499,65.8534:-43.4046:749.328,0.989683,255:150 178x178,512,0.607196,closed,unknown,0.998183,0.800791,none,0.972737,9999,9999,9999,9999,9999,9999,9999,0,0,0.989683,9999,1,9999:9999,9999:9999,9999,n/a,N/A,Unknown,N/A,9999,9999,9999,9999,9999,9999,9999,2020-06-28T15:13:15.098,5640
0,143,,0,-6.76523,-48.3519,-3.00299,-1.17908,-11.1499,65.6705:-43.5948:749.328,0.904901,256:150 178x178,512,0.606589,opened,unknown,0.999706,0.800791,none,0.971392,9999,-48.4112,9999,0.167877,9999,4.49438,9999,2.68113,0,0.904899,9999,0.756261,9999:9999,9999:9999,9999,n/a,N/A,Unknown,N/A,9999,9999,9999,9999,9999,9999,9999,2020-06-28T15:13:15.138,5680
0,144,,0,-9.52158,-48.4433,-1.96763,-1.17908,-11.1499,65.8221:-43.2343:749.328,0.793987,255:150 178x178,512,0.605982,opened,unknown,0.999921,0.800791,none,0.971392,9999,-48.8401,9999,2.86048,9999,3.14606,9999,3.89231,0,0.793985,9999,0.646154,9999:9999,9999:9999,9999,n/a,N/A,Unknown,N/A,9999,9999,9999,9999,9999,9999,9999,2020-06-28T15:13:15.178,5720
0,145,,0,-9.40361,-47.8389,-2.19447,-1.17908,-11.1499,65.624:-43.3628:749.328,0.823505,255:150 178x178,512,0.605376,opened,unknown,0.999451,0.793421,none,0.969567,9999,-49.0696,9999,4.07991,9999,4.04494,9999,3.53823,0,0.823502,9999,0.678342,9999:9999,9999:9999,9999,n/a,N/A,Unknown,N/A,9999,9999,9999,9999,9999,9999,9999,2020-06-28T15:13:15.218,5760
0,146,,0,-8.23605,-47.7183,-2.85492,-1.17908,-11.1499,65.7152:-43.174:749.328,0.925698,255:151 178x178,512,0.604771,opened,unknown,0.999953,0.793421,none,0.969567,9999,-47.5764,9999,4.66472,9999,4.49438,9999,4.23094,0,0.925698,9999,0.615369,9999:9999,9999:9999,9999,n/a,N/A,Unknown,N/A,9999,9999,9999,9999,9999,9999,9999,2020-06-28T15:13:15.258,5800
0,147,,0,-8.7775,-46.762,-3.1637,-1.17908,-11.1499,65.8502:-42.6451:749.328,0.980875,255:150 178x178,512,0.604166,opened,unknown,0.999973,0.793421,none,0.968409,9999,-46.7169,9999,4.89127,9999,4.04494,9999,4.16703,0,0.980875,9999,0.621179,9999:9999,9999:9999,9999,n/a,N/A,Unknown,N/A,9999,9999,9999,9999,9999,9999,9999,2020-06-28T15:13:15.298,5840
0,148,,0,-9.59136,-45.189,-2.89677,-1.17908,-11.1499,65.7118:-42.5881:749.328,0.96976,255:150 178x178,512,0.603562,opened,unknown,0.999982,0.783979,none,0.968409,9999,-46.8234,9999,6.53152,9999,4.04494,9999,3.45259,0,0.96976,9999,0.686128,9999:9999,9999:9999,9999,n/a,N/A,Unknown,N/A,9999,9999,9999,9999,9999,9999,9999,2020-06-28T15:13:15.338,5880
0,149,,0,-9.80928,-47.539,-2.25602,-1.17908,-11.1499,65.4311:-42.8427:749.328,0.94295,254:150 178x178,512,0.602958,opened,unknown,0.999995,0.783979,none,0.969338,9999,-45.7519,9999,7.01071,9999,3.5955,9999,3.25607,0,0.94252,9999,0.703994,9999:9999,9999:9999,9999,n/a,N/A,Unknown,N/A,9999,9999,9999,9999,9999,9999,9999,2020-06-28T15:13:15.378,5920
0,150,,0,-10.1624,-48.6112,-1.83878,-1.17908,-11.1499,65.1944:-42.8531:749.328,0.94254,254:150 178x178,512,0.602355,opened,unknown,0.999985,0.849439,none,0.969338,9999,-45.5003,9999,8.36595,9999,4.04494,9999,3.03596,0,0.942539,9999,0.724003,9999:9999,9999:9999,9999,n/a,N/A,Unknown,N/A,9999,9999,9999,9999,9999,9999,9999,2020-06-28T15:13:15.418,5960
0,151,,0,-8.421,-46.8652,-2.37457,-1.17908,-11.1499,64.9166:-42.8838:749.328,0.953739,254:151 178x178,512,0.601753,opened,unknown,0.999969,0.854268,none,0.978018,9999,-46.2644,9999,9.70931,9999,4.04494,9999,3.49799,0,0.953729,9999,0.682001,9999:9999,9999:9999,9999,n/a,N/A,Unknown,N/A,9999,9999,9999,9999,9999,9999,9999,2020-06-28T15:13:15.458,6000
0,152,,0,-8.86318,-47.5832,-2.83005,-1.17908,-11.1499,64.3102:-43.0644:749.328,0.962332,253:150 178x178,512,0.595735,opened,unknown,0.999956,0.854268,none,0.978018,9999,-45.7839,9999,10.3106,9999,4.04494,9999,3.83385,0,0.962329,9999,0.651469,9999:9999,9999:9999,9999,n/a,N/A,Unknown,N/A,9999,9999,9999,9999,9999,9999,9999,2020-06-28T15:13:15.498,6040
0,153,,0,-10.2887,-47.5536,-2.88143,-1.17908,-11.1499,64.4985:-42.5866:749.328,0.977953,254:150 178x178,512,0.59514,opened,unknown,0.999997,0.854268,none,0.982655,9999,-45.579,9999,11.2764,9999,4.04494,9999,3.4666,0,0.977953,9999,0.684854,9999:9999,9999:9999,9999,n/a,N/A,Unknown,N/A,9999,9999,9999,9999,9999,9999,9999,2020-06-28T15:13:15.538,6080
0,154,,0,-9.48335,-45.4167,-2.72188,-1.17908,-11.1499,64.2604:-42.7283:749.328,0.977362,254:150 178x178,512,0.594544,opened,unknown,0.999913,0.854268,none,0.982655,9999,-46.6985,9999,12.0506,9999,4.49438,9999,3.87738,0,0.977334,9999,0.647511,9999:9999,9999:9999,9999,n/a,N/A,Unknown,N/A,9999,9999,9999,9999,9999,9999,9999,2020-06-28T15:13:15.578,6120
0,155,,0,-9.68101,-47.0648,-2.38831,-1.17908,-11.1499,63.9347:-42.9209:749.328,0.940844,253:150 178x178,512,0.59395,opened,unknown,0.999997,0.776581,none,0.982946,9999,-45.2156,9999,11.1788,9999,4.49438,9999,4.13157,0,0.883221,9999,0.624403,9999:9999,9999:9999,9999,n/a,N/A,Unknown,N/A,9999,9999,9999,9999,9999,9999,9999,2020-06-28T15:13:15.618,6160
0,156,,0,-10.0016,-47.5156,-2.59163,-1.17908,-11.1499,64.4704:-42.7228:749.328,0.930337,254:150 178x178,512,0.593356,opened,unknown,0.999954,0.776581,none,0.982946,9999,-44.1598,9999,11.1065,9999,4.04494,9999,3.26984,0,0.930335,9999,0.702742,9999:9999,9999:9999,9999,n/a,N/A,Unknown,N/A,9999,9999,9999,9999,9999,9999,9999,2020-06-28T15:13:15.658,6200
0,157,,0,-9.91483,-47.6342,-2.49355,-1.17908,-11.1499,63.7812:-43.2051:749.328,0.905119,253:150 178x178,512,0.592763,opened,unknown,0.999999,0.776581,none,0.984084,9999,-45.2204,9999,11.6797,9999,4.04494,9999,3.66397,0,0.905118,9999,0.666912,9999:9999,9999:9999,9999,n/a,N/A,Unknown,N/A,9999,9999,9999,9999,9999,9999,9999,2020-06-28T15:13:15.698,6240
0,158,,0,-10.1152,-48.9778,-2.16719,-1.17908,-11.1499,63.7095:-43.3056:749.328,0.908444,253:150 178x178,512,0.59217,opened,unknown,0.999998,0.738428,none,0.984084,9999,-44.1187,9999,11.0762,9999,4.94382,9999,4.50539,0,0.907346,9999,0.590419,9999:9999,9999:9999,9999,n/a,N/A,Unknown,N/A,9999,9999,9999,9999,9999,9999,9999,2020-06-28T15:13:15.738,6280
0,159,,0,-9.99593,-47.5924,-2.10213,-1.17908,-11.1499,63.0978:-43.4942:749.328,0.968028,252:150 178x178,512,0.591578,opened,unknown,1,0.738428,none,0.984408,9999,-42.4665,9999,10.7993,9999,4.94382,9999,4.76624,0,0.968027,9999,0.566705,9999:9999,9999:9999,9999,n/a,N/A,Unknown,N/A,9999,9999,9999,9999,9999,9999,9999,2020-06-28T15:13:15.778,6320
0,160,,0,-8.65528,-47.554,-1.82891,-1.17908,-11.1499,61.6567:-43.6359:749.328,0.979808,251:150 178x178,512,0.590986,opened,opened,0.999978,0.884946,none,0.984408,9999,-43.5012,9999,11.3913,9999,4.94382,9999,4.55399,0,0.979793,9999,0.586001,9999:9999,9999:9999,9999,n/a,N/A,Unknown,N/A,9999,9999,9999,9999,9999,9999,9999,2020-06-28T15:13:15.818,6360
0,161,,0,-6.33532,-45.8735,-1.54819,-1.17908,-11.1499,60.7349:-42.9974:749.328,0.90573,250:150 178x178,512,0.590395,opened,opened,1,0.884946,none,0.983445,9999,-44.2106,9999,11.292,9999,4.94382,9999,4.60153,0,0.90573,9999,0.581679,9999:9999,9999:9999,9999,n/a,N/A,Unknown,N/A,9999,9999,9999,9999,9999,9999,9999,2020-06-28T15:13:15.858,6400
0,162,,0,-4.95509,-41.396,-0.490788,-1.17908,-11.1499,58.5:-43.1527:749.328,0.690031,247:149 178x178,512,0.584491,opened,unknown,1,0.702251,none,0.983445,9999,-44.7895,9999,11.6001,9999,4.94382,9999,4.44201,0,0.690031,9999,0.596181,9999:9999,9999:9999,9999,n/a,N/A,Unknown,N/A,9999,9999,9999,9999,9999,9999,9999,2020-06-28T15:13:15.898,6440
0,163,,0,-5.15574,-40.3784,0.19425,-1.22327,-11.4747,56.2974:-43.3967:749.328,0.708985,247:149 178x178,64,0.915882,opened,unknown,0.99983,0.702251,none,0.980491,9999,-47.0509,9999,12.7942,9999,5.39325,9999,3.6207,0,0.708984,9999,0.670845,9999:9999,9999:9999,9999,n/a,N/A,Unknown,N/A,9999,9999,9999,9999,9999,9999,9999,2020-06-28T15:13:15.938,6480
0,164,,0,-6.22465,-40.3004,0.579839,-1.27823,-11.7914,53.8275:-43.6005:749.328,0.702071,244:148 178x178,512,0.906723,opened,opened,0.999989,0.87157,none,0.980491,9999,-48.1428,9999,12.9501,9999,4.49438,9999,4.07968,0,0.702063,9999,0.62912,9999:9999,9999:9999,9999,n/a,N/A,Unknown,N/A,9999,9999,9999,9999,9999,9999,9999,2020-06-28T15:13:15.978,6520
0,165,,0,-6.18023,-36.9902,1.75396,-1.33151,-12.0653,50.7702:-44.5025:749.328,0.773614,241:148 178x178,512,0.897656,opened,opened,0.999998,0.994812,none,0.978693,9999,-48.1783,9999,13.0441,9999,4.94382,5.96877,4.30644,0.758141,0.773613,0.457385,0.608505,9999:9999,9999:9999,9999,n/a,N/A,Unknown,N/A,9999,9999,9999,9999,9999,9999,9999,2020-06-28T15:13:16.018,6560
0,166,,0,-3.80785,-37.2067,1.08097,-1.35814,-12.3357,47.1764:-44.6156:749.328,0.892635,237:148 178x178,512,0.888679,opened,opened,0.999907,0.951836,none,0.978693,9999,-50.2161,9999,13.6149,9999,4.94382,5.85383,4.0045,0.874782,0.892586,0.467833,0.635954,9999:9999,9999:9999,9999,n/a,N/A,Unknown,N/A,9999,9999,9999,9999,9999,9999,9999,2020-06-28T15:13:16.058,6600
0,167,,0,-5.16852,-37.9522,1.51541,-1.39867,-12.6082,42.8784:-44.8266:749.328,0.862777,233:147 178x178,512,0.879792,opened,opened,0.999939,0.991316,none,0.969042,9999,-48.0606,9999,13.1497,9999,4.94382,6.21145,5.65897,0.845522,0.862777,0.435323,0.485548,9999:9999,9999:9999,9999,n/a,N/A,Unknown,N/A,9999,9999,9999,9999,9999,9999,9999,2020-06-28T15:13:16.098,6640
0,168,,0,-6.4931,-35.7224,2.8445,-1.4523,-12.8515,38.4081:-45.1502:749.328,0.913754,229:147 178x178,512,0.870995,opened,opened,0.99998,0.999867,none,0.969042,9999,-39.8008,9999,12.3077,9999,5.39325,5.84541,4.96265,0.895479,0.913754,0.468599,0.54885,9999:9999,9999:9999,9999,n/a,N/A,Unknown,N/A,9999,9999,9999,9999,9999,9999,9999,2020-06-28T15:13:16.138,6680
0,169,,0,-5.28729,-34.1892,2.21095,-1.49224,-13.0738,33.0646:-44.9046:749.328,0.906173,225:147 178x178,512,0.862285,opened,opened,0.998399,0.99641,none,0.969264,9999,-30.2219,9999,10.898,9999,5.39325,6.20005,5.5083,0.88805,0.906173,0.436359,0.499245,9999:9999,9999:9999,9999,n/a,N/A,Unknown,N/A,9999,9999,9999,9999,9999,9999,9999,2020-06-28T15:13:16.178,6720
0,170,,0,-5.31465,-33.8282,2.16165,-1.53165,-13.2877,29.1714:-44.7814:749.328,0.893125,222:146 178x178,512,0.853662,opened,opened,0.998103,0.999937,none,0.969264,-5.36599,-5.36599,2.05373,2.05373,4.04494,5.39325,4.69506,5.57121,0.867022,0.893102,0.573176,0.493526,38:-20,-7:-23,9999,n/a,N/A,Unknown,N/A,9999,9999,9999,9999,9999,9999,9999,2020-06-28T15:13:16.218,6760
0,171,,0,-4.75625,-33.0859,2.51837,-1.56455,-13.4897,25.0264:-44.2236:749.328,0.9664,218:147 178x178,512,0.845125,opened,opened,0.999321,0.999909,none,0.969549,-0.400269,-0.400269,1.23225,1.23225,4.04494,5.84269,4.62061,5.74285,0.966394,0.9664,0.579944,0.477922,37:-20,-11:-23,9999,n/a,N/A,Unknown,N/A,9999,9999,9999,9999,9999,9999,9999,2020-06-28T15:13:16.258,6800
0,172,,0,-4.14918,-31.5461,2.61544,-1.59066,-13.6721,21.2651:-43.702:749.328,0.956047,214:146 178x178,512,0.836674,opened,opened,0.997757,0.99999,none,0.969549,2.39756,2.39756,1.44217,1.44217,4.49438,5.84269,4.50824,5.65752,0.955702,0.956039,0.59016,0.48568,36:-20,-14:-24,9999,n/a,N/A,Unknown,N/A,9999,9999,9999,9999,9999,9999,9999,2020-06-28T15:13:16.298,6840
0,173,,0,-3.55031,-30.4253,2.72347,-1.61026,-13.8397,17.4509:-43.3568:749.328,0.948487,211:146 178x178,512,0.828307,opened,opened,0.996814,0.999998,none,0.969671,2.54381,2.54381,2.00291,2.00291,4.94382,5.84269,4.69482,5.26661,0.943888,0.948487,0.573198,0.521217,33:-20,-17:-24,9999,n/a,N/A,Unknown,N/A,9999,9999,9999,9999,9999,9999,9999,2020-06-28T15:13:16.338,6880
0,174,,0,-3.29539,-28.6174,3.49593,-1.62694,-13.986,13.4416:-43.2813:749.328,0.811004,209:146 178x178,512,0.820024,opened,opened,0.998217,0.999984,none,0.969671,1.73645,1.73645,3.14221,3.14221,4.94382,5.39325,4.32972,5.28087,0.800733,0.811004,0.606389,0.519921,30:-21,-19:-24,9999,n/a,N/A,Unknown,N/A,9999,9999,9999,9999,9999,9999,9999,2020-06-28T15:13:16.378,6920
