Frame result index,Frame Number,Person UUID,Person UUID Confidence,Headpose Pitch (deg),Headpose Yaw (deg),Headpose Roll (deg),Headpose Pitch Calib (deg),Headpose Yaw Calib (deg),Headpose (X:Y:Z) (mm),Headpose Confidence,Face Rect (X:Y Width X Height),Face Rect detect algorithm,Face Rect Confidence,EyeState Right,EyeState Left,EyeState Right Confidence,EyeState Left Confidence,Eyewear,Eyewear Confidence,EyeGaze Horizontal Left (deg),EyeGaze Horizontal Right (deg),EyeGaze Vertical Left (deg),EyeGaze Vertical Right (deg),Iris RadiusL (mm),Iris RadiusR (mm),Eye Aperture Left (mm),Eye Aperture Right (mm),Eye Aperture Left Confidence,Eye Aperture Right Confidence,Eyelid Closed Left (%),Eyelid Closed Right (%),Eye Center Left (X:Y) (mm),Eye Center Right (X:Y) (mm),Drowsiness Level (0-10),Age,Gender,Ethnic,Emotion,Illumination Variance,Illumination Average,Frame Time,Time From Start
0,1,,0,-0.433744,1.45454,1.58339,0,0,-26.7386:-44.2372:724.894,0.19,201:142 184x184,64,0.840228,opened,opened,0.999998,1,unknown,0,4.23254,4.23254,6.95887,6.95887,5.65217,5.21739,4.89334,5.6521,0.189978,0.189823,0.555151,0.486172,2:-23,-52:-23,9999,n/a,N/A,Unknown,N/A,0,0,2020-06-29T15:51:09.610,0
0,2,,0,-0.777702,1.44263,1.75932,0,0,-27.0515:-44.9526:726.875,0.99,201:142 183x183,512,0.839387,opened,opened,0.999998,1,unknown,0,3.36879,3.36879,7.12223,7.12223,5.66762,5.66762,4.84419,6.17316,0.989997,0.98998,0.559619,0.438804,3:-23,-51:-24,9999,n/a,N/A,Unknown,N/A,0,0,2020-06-29T15:51:09.650,40
0,3,,0,-0.793767,1.44924,1.95464,0,0,-26.9187:-44.9044:727.535,0.99,201:143 183x183,512,0.838548,opened,opened,0.999995,1,none,0.997618,3.1877,3.1877,7.39541,7.39541,5.67276,5.67276,4.97345,5.77219,0.989875,0.989154,0.547868,0.475256,3:-23,-51:-24,9999,n/a,N/A,Unknown,N/A,0,0,2020-06-29T15:51:09.690,80
0,4,,0,-0.6048,1.55169,1.65353,0,0,-26.7468:-44.9024:727.865,0.99,202:143 183x183,512,0.837709,opened,opened,0.999999,1,none,0.997618,3.3715,3.3715,7.59572,7.59572,5.67534,5.23877,5.0922,5.52412,0.989528,0.989966,0.537073,0.497808,3:-23,-51:-23,9999,n/a,N/A,Unknown,N/A,0,0,2020-06-29T15:51:09.730,120
0,5,,0,-1.40137,1.51555,1.55029,0,0,-26.7248:-45.3088:728.063,0.989068,202:142 183x183,512,0.836872,opened,opened,0.999994,1,none,0.997871,3.61906,3.61906,7.51468,7.51468,5.67688,5.67688,5.13107,5.90263,0.988262,0.988992,0.533539,0.463397,3:-23,-52:-23,9999,n/a,N/A,Unknown,N/A,0,0,2020-06-29T15:51:09.770,160
0,6,,0,-1.14819,1.18616,1.583,0,0,-25.9483:-44.6388:728.195,0.989063,204:144 183x183,512,0.828503,opened,opened,0.999998,1,none,0.997871,3.78539,3.78539,7.23284,7.23284,5.67791,5.67791,5.30217,5.90315,0.989063,0.988275,0.517985,0.46335,4:-23,-50:-22,9999,n/a,N/A,Unknown,N/A,0,0,2020-06-29T15:51:09.810,200
0,7,,0,0.00804949,1.10877,1.36054,0,0,-25.1617:-44.0568:728.29,0.988499,205:144 183x183,512,0.827675,opened,opened,0.998564,0.998995,none,0.998521,3.03878,3.03878,7.78596,7.78596,5.24183,5.67865,4.64827,5.03376,0.969041,0.987341,0.57743,0.542386,6:-21,-48:-20,9999,n/a,N/A,Unknown,N/A,0,0,2020-06-29T15:51:09.850,240
0,8,,0,0.00410035,1.52907,1.38495,0,0,-24.5903:-43.588:728.36,0.989208,205:144 183x183,512,0.826847,closed,closed,0.998815,0.996586,none,0.998521,9999,9999,9999,9999,9999,9999,0,0,0.988601,0.987691,1,1,9999:9999,9999:9999,9999,n/a,N/A,Unknown,N/A,0,0,2020-06-29T15:51:09.890,280
0,9,,0,0.197941,1.20348,1.63203,0,0,-24.1189:-42.6562:728.415,0.987839,204:144 183x183,512,0.82602,closed,closed,0.999002,0.999686,none,0.998886,9999,9999,9999,9999,9999,9999,0,0,0.987787,0.987745,1,1,9999:9999,9999:9999,9999,n/a,N/A,Unknown,N/A,0,0,2020-06-29T15:51:09.930,320
0,10,,0,0.319004,0.863616,1.73035,0,0,-24.1952:-42.6138:728.459,0.98998,204:144 183x183,512,0.825194,closed,closed,0.996715,0.997982,none,0.998886,9999,9999,9999,9999,9999,9999,0,0,0.989737,0.730128,1,1,9999:9999,9999:9999,9999,n/a,N/A,Unknown,N/A,0,0,2020-06-29T15:51:09.970,360
0,11,,0,0.366558,0.982686,1.75621,0,0,-24.267:-42.379:728.495,0.989984,204:145 183x183,512,0.824369,closed,closed,0.999413,0.998248,none,0.999085,9999,9999,9999,9999,9999,9999,0,0,0.989975,0.966211,1,1,9999:9999,9999:9999,9999,n/a,N/A,Unknown,N/A,0,0,2020-06-29T15:51:10.010,400
0,12,,0,0.574353,1.00201,1.99799,0,0,-24.2777:-42.0382:728.525,0.989987,204:144 183x183,512,0.823545,closed,closed,0.999713,0.999529,none,0.999085,9999,9999,9999,9999,9999,9999,0,0,0.989987,0.988616,1,1,9999:9999,9999:9999,9999,n/a,N/A,Unknown,N/A,0,0,2020-06-29T15:51:10.050,440
0,13,,0,0.392911,1.05719,2.10037,0,0,-24.3822:-41.8106:728.551,0.99,203:145 183x183,512,0.815309,closed,closed,0.999638,0.999112,none,0.999228,9999,9999,9999,9999,9999,9999,0,0,0.98998,0.988278,1,1,9999:9999,9999:9999,9999,n/a,N/A,Unknown,N/A,0,0,2020-06-29T15:51:10.090,480
0,14,,0,0.485044,0.952562,1.85032,0,0,-24.514:-41.464:728.573,0.99,203:145 183x183,512,0.814494,closed,closed,0.999818,0.999353,none,0.999228,9999,9999,9999,9999,9999,9999,0,0,0.989997,0.989914,1,1,9999:9999,9999:9999,9999,n/a,N/A,Unknown,N/A,0,0,2020-06-29T15:51:10.130,520
0,15,,0,0.842319,1.04757,1.78491,0,0,-24.9044:-41.309:728.591,0.99,203:145 183x183,512,0.813679,closed,closed,0.999921,0.999816,none,0.999336,9999,9999,9999,9999,9999,9999,0,0,0.989586,0.966848,1,1,9999:9999,9999:9999,9999,n/a,N/A,Unknown,N/A,0,0,2020-06-29T15:51:10.170,560
0,16,,0,0.654191,1.12562,1.74449,0,0,-25.1367:-41.4179:728.608,0.99,203:145 183x183,512,0.812866,closed,closed,0.999924,0.999879,none,0.999336,9999,9999,9999,9999,9999,9999,0,0,0.989518,0.98981,1,1,9999:9999,9999:9999,9999,n/a,N/A,Unknown,N/A,0,0,2020-06-29T15:51:10.210,600
0,17,,0,0.276591,1.03482,1.59657,0,0,-24.9744:-41.6966:728.622,0.99,203:145 183x183,512,0.812053,closed,closed,0.999943,0.999874,none,0.999418,9999,9999,9999,9999,9999,9999,0,0,0.989962,0.988292,1,1,9999:9999,9999:9999,9999,n/a,N/A,Unknown,N/A,0,0,2020-06-29T15:51:10.250,640
0,18,,0,0.539676,0.882654,1.65772,0,0,-24.7471:-41.7263:728.635,0.99,204:145 183x183,512,0.811241,closed,closed,0.999923,0.999926,none,0.999418,9999,9999,9999,9999,9999,9999,0,0,0.989569,0.988956,1,1,9999:9999,9999:9999,9999,n/a,N/A,Unknown,N/A,0,0,2020-06-29T15:51:10.290,680
0,19,,0,0.664559,0.743465,1.70985,0,0,-24.3121:-42.0624:728.647,0.99,204:145 183x183,512,0.81043,closed,closed,0.999918,0.99995,none,0.99948,9999,9999,9999,9999,9999,9999,0,0,0.989765,0.989991,1,1,9999:9999,9999:9999,9999,n/a,N/A,Unknown,N/A,0,0,2020-06-29T15:51:10.330,720
0,20,,0,0.739044,0.837945,1.64378,0,0,-24.0377:-41.9099:728.657,0.99,204:145 183x183,512,0.809619,closed,closed,0.999941,0.999892,none,0.99948,9999,9999,9999,9999,9999,9999,0,0,0.989767,0.989959,1,1,9999:9999,9999:9999,9999,n/a,N/A,Unknown,N/A,0,0,2020-06-29T15:51:10.370,760
0,21,,0,1.00155,1.21918,1.52673,0,0,-24.0233:-41.6787:728.667,0.99,204:145 183x183,512,0.80881,closed,closed,0.999922,0.99989,none,0.99953,9999,9999,9999,9999,9999,9999,0,0,0.989991,0.989971,1,1,9999:9999,9999:9999,9999,n/a,N/A,Unknown,N/A,0,0,2020-06-29T15:51:10.410,800
0,22,,0,0.842473,1.17147,1.62059,0,0,-23.7123:-41.5542:728.675,0.99,204:146 183x183,512,0.808001,closed,closed,0.999858,0.999846,none,0.99953,9999,9999,9999,9999,9999,9999,0,0,0.989959,0.989999,1,1,9999:9999,9999:9999,9999,n/a,N/A,Unknown,N/A,0,0,2020-06-29T15:51:10.450,840
0,23,,0,0.886284,1.07869,1.78536,0,0,-23.7924:-41.4279:728.683,0.99,204:145 183x183,512,0.807193,closed,closed,0.999946,0.999852,none,0.999572,9999,9999,9999,9999,9999,9999,0,0,0.989318,0.989999,1,1,9999:9999,9999:9999,9999,n/a,N/A,Unknown,N/A,0,0,2020-06-29T15:51:10.490,880
0,24,,0,1.07883,1.35353,1.83018,0,0,-24.0289:-41.3613:728.69,0.99,204:145 183x183,512,0.806386,closed,closed,0.999938,0.999975,none,0.999572,9999,9999,9999,9999,9999,9999,0,0,0.989999,0.989449,1,1,9999:9999,9999:9999,9999,n/a,N/A,Unknown,N/A,0,0,2020-06-29T15:51:10.530,920
0,25,,0,0.976591,1.38542,1.87481,0,0,-23.9673:-41.4228:728.697,0.99,204:145 183x183,512,0.805579,closed,closed,0.999924,0.999906,none,0.999602,9999,9999,9999,9999,9999,9999,0,0,0.99,0.989997,1,1,9999:9999,9999:9999,9999,n/a,N/A,Unknown,N/A,0,0,2020-06-29T15:51:10.570,960
0,26,,0,1.05257,1.27733,1.90448,0,0,-24.1753:-41.4832:728.703,0.99,204:145 183x183,512,0.804774,closed,closed,0.999938,0.999892,none,0.999602,9999,9999,9999,9999,9999,9999,0,0,0.989599,0.988878,1,1,9999:9999,9999:9999,9999,n/a,N/A,Unknown,N/A,0,0,2020-06-29T15:51:10.610,1000
0,27,,0,0.899343,1.25297,1.73648,0,0,-24.2345:-41.3587:728.709,0.99,204:145 183x183,512,0.803969,closed,closed,0.999877,0.999953,none,0.999625,9999,9999,9999,9999,9999,9999,0,0,0.989999,0.989992,1,1,9999:9999,9999:9999,9999,n/a,N/A,Unknown,N/A,0,0,2020-06-29T15:51:10.650,1040
0,28,,0,0.50679,1.49748,1.61075,0,0,-24.2897:-41.5659:728.714,0.99,204:145 183x183,512,0.803165,closed,closed,0.99989,0.999865,none,0.999625,9999,9999,9999,9999,9999,9999,0,0,0.989958,0.98999,1,1,9999:9999,9999:9999,9999,n/a,N/A,Unknown,N/A,0,0,2020-06-29T15:51:10.690,1080
0,29,,0,0.445542,1.73315,2.01108,0,0,-24.7552:-41.701:728.719,0.99,203:145 183x183,512,0.802362,closed,closed,0.999914,0.999918,none,0.999651,9999,9999,9999,9999,9999,9999,0,0,0.977777,0.989955,1,1,9999:9999,9999:9999,9999,n/a,N/A,Unknown,N/A,0,0,2020-06-29T15:51:10.730,1120
0,30,,0,0.581181,1.42574,1.9362,0,0,-24.8364:-41.4521:728.723,0.99,204:146 183x183,512,0.794338,closed,closed,0.999855,0.999796,none,0.999651,9999,9999,9999,9999,9999,9999,0,0,0.989975,0.989402,1,1,9999:9999,9999:9999,9999,n/a,N/A,Unknown,N/A,0,0,2020-06-29T15:51:10.770,1160
0,31,,0,0.499775,1.38162,1.57057,0,0,-24.9079:-41.2135:728.728,0.99,204:146 183x183,512,0.793544,closed,closed,0.999907,0.999874,none,0.999674,9999,9999,9999,9999,9999,9999,0,0,0.987443,0.989942,1,1,9999:9999,9999:9999,9999,n/a,N/A,Unknown,N/A,0,0,2020-06-29T15:51:10.810,1200
0,32,,0,0.390136,1.48633,1.83013,0,0,-24.7138:-40.8216:728.732,0.99,204:146 183x183,512,0.79275,closed,closed,0.999839,0.999887,none,0.999674,9999,9999,9999,9999,9999,9999,0,0,0.989626,0.987759,1,1,9999:9999,9999:9999,9999,n/a,N/A,Unknown,N/A,0,0,2020-06-29T15:51:10.850,1240
0,33,,0,0.45106,1.23284,1.64781,0,0,-24.1049:-40.4946:728.735,0.989999,205:146 183x183,512,0.791957,closed,closed,0.999782,0.999741,none,0.999692,9999,9999,9999,9999,9999,9999,0,0,0.989978,0.988416,1,1,9999:9999,9999:9999,9999,n/a,N/A,Unknown,N/A,0,0,2020-06-29T15:51:10.890,1280
0,34,,0,0.513125,1.30798,1.491,0,0,-24.0675:-40.7348:728.739,0.99,205:145 183x183,512,0.791166,closed,closed,0.999757,0.999673,none,0.999692,9999,9999,9999,9999,9999,9999,0,0,0.987925,0.97674,1,1,9999:9999,9999:9999,9999,n/a,N/A,Unknown,N/A,0,0,2020-06-29T15:51:10.930,1320
0,35,,0,0.592247,1.47665,1.58012,0,0,-24.0295:-40.8142:728.742,0.99,205:145 183x183,512,0.790374,closed,closed,0.926563,0.998586,none,0.999708,9999,9999,9999,9999,9999,9999,0,0,0.989871,0.824976,1,1,9999:9999,9999:9999,9999,n/a,N/A,Unknown,N/A,0,0,2020-06-29T15:51:10.970,1360
0,36,,0,1.06303,1.01913,1.63425,0,0,-23.4738:-40.6882:728.745,0.99,205:146 183x183,512,0.789584,opened,opened,0.975306,0.998862,none,0.999708,3.94607,3.94607,7.66885,7.66885,5.24511,5.24511,2.67562,3.7065,0.989963,0.805272,0.756762,0.663046,7:-20,-50:-20,9999,n/a,N/A,Unknown,N/A,0,0,2020-06-29T15:51:11.010,1400
0,37,,0,1.12199,0.670237,1.51196,0,0,-23.2161:-40.6614:728.748,0.99,205:145 183x183,512,0.788794,opened,opened,0.999996,1,none,0.999678,3.94442,3.94442,7.56562,7.56562,5.24513,4.37094,3.91337,4.30291,0.989962,0.987582,0.644239,0.608826,5:-21,-48:-20,9999,n/a,N/A,Unknown,N/A,0,0,2020-06-29T15:51:11.050,1440
0,38,,0,0.555646,0.915539,1.25309,0,0,-22.9383:-40.7728:728.751,0.99,205:145 183x183,512,0.788006,opened,opened,0.999992,1,none,0.999678,3.19148,3.19148,7.21256,7.21256,5.24515,5.24515,5.33774,4.7495,0.99,0.594752,0.51475,0.568227,5:-21,-48:-20,9999,n/a,N/A,Unknown,N/A,0,0,2020-06-29T15:51:11.090,1480
0,39,,0,0.307527,1.21944,1.15013,0,0,-22.7104:-41.0145:728.754,0.99,205:145 183x183,64,0.979899,opened,opened,0.999709,0.999999,none,0.999619,2.36209,2.36209,6.84712,6.84712,5.24517,5.24517,5.85694,4.92871,0.989998,0.883893,0.467551,0.551935,5:-22,-49:-21,9999,n/a,N/A,Unknown,N/A,0,0,2020-06-29T15:51:11.130,1520
0,40,,0,0.276963,1.17996,1.19663,0,0,-22.8619:-41.4016:728.756,0.99,205:145 183x183,512,0.978919,opened,opened,0.999984,1,none,0.999619,3.16849,3.16849,5.30471,5.30471,5.68229,4.80809,5.70437,4.81509,0.99,0.984562,0.481421,0.562265,5:-22,-49:-21,9999,n/a,N/A,Unknown,N/A,0,0,2020-06-29T15:51:11.170,1560
0,41,,0,0.379581,0.974144,1.22451,0,0,-22.757:-41.4045:728.759,0.99,205:146 183x183,512,0.97794,opened,opened,0.999969,1,none,0.999575,2.52584,2.52584,4.01652,4.01652,5.68231,4.80811,5.78198,4.99743,0.99,0.98881,0.474365,0.545689,4:-21,-49:-22,9999,n/a,N/A,Unknown,N/A,0,0,2020-06-29T15:51:11.210,1600
0,42,,0,0.744061,0.867478,1.11703,0,0,-22.4772:-41.0821:728.761,0.99,205:146 183x183,512,0.976962,opened,opened,0.999899,0.999999,none,0.999575,2.70147,2.70147,2.67383,2.67383,5.68232,5.24522,6.03385,5.25538,0.99,0.986509,0.451468,0.522238,5:-21,-50:-22,9999,n/a,N/A,Unknown,N/A,0,0,2020-06-29T15:51:11.250,1640
0,43,,0,0.916812,0.826296,1.32779,0,0,-22.1001:-40.7334:728.763,0.99,205:146 183x183,512,0.975985,opened,opened,0.999991,1,none,0.99959,3.49875,3.49875,1.82501,1.82501,5.24524,5.24524,5.83637,5.47714,0.989996,0.988726,0.469421,0.502078,5:-21,-49:-22,9999,n/a,N/A,Unknown,N/A,0,0,2020-06-29T15:51:11.290,1680
0,44,,0,0.684777,0.89951,1.36142,0,0,-22.0573:-40.5539:728.765,0.99,205:146 183x183,512,0.975009,opened,opened,0.999986,1,none,0.99959,3.8545,3.8545,1.49497,1.49497,5.24525,4.80815,5.69851,5.39408,0.99,0.8789,0.481954,0.509629,5:-21,-49:-21,9999,n/a,N/A,Unknown,N/A,0,0,2020-06-29T15:51:11.330,1720
0,45,,0,0.571443,0.854412,1.40709,0,0,-22.0244:-40.4815:728.767,0.99,205:146 183x183,512,0.974034,opened,opened,0.999986,1,none,0.999638,3.78958,3.78958,1.29495,1.29495,5.24527,4.80816,5.73152,5.36434,0.989729,0.99,0.478953,0.512333,5:-21,-50:-21,9999,n/a,N/A,Unknown,N/A,0,0,2020-06-29T15:51:11.370,1760
0,46,,0,0.655033,0.494461,1.46101,0,0,-21.7749:-40.5105:728.769,0.99,205:146 183x183,512,0.97306,opened,opened,0.99999,1,none,0.999638,3.78487,3.78487,1.55968,1.55968,5.24528,4.80818,5.65689,5.68662,0.988986,0.989999,0.485737,0.483035,6:-21,-50:-20,9999,n/a,N/A,Unknown,N/A,0,0,2020-06-29T15:51:11.410,1800
0,47,,0,0.876301,-0.236214,1.21882,0,0,-21.0583:-40.3397:728.771,0.99,206:146 183x183,512,0.972087,opened,opened,0.99998,1,none,0.999566,3.42761,3.42761,2.32085,2.32085,4.80819,5.6824,5.48718,5.79705,0.811046,0.989696,0.501166,0.472995,6:-21,-48:-20,9999,n/a,N/A,Unknown,N/A,0,0,2020-06-29T15:51:11.450,1840
0,48,,0,1.18274,-1.0774,1.34102,0,0,-19.6687:-39.987:728.773,0.99,207:146 183x183,512,0.971115,opened,opened,0.99997,1,none,0.999566,2.61756,2.61756,3.05384,3.05384,5.24531,5.24531,5.52027,5.587,0.989549,0.989998,0.498157,0.492091,6:-21,-48:-21,9999,n/a,N/A,Unknown,N/A,0,0,2020-06-29T15:51:11.490,1880
0,49,,0,1.21138,-1.46267,1.29729,0,0,-18.155:-39.6489:728.775,0.99,208:146 183x183,512,0.970144,opened,opened,0.999989,1,none,0.999511,2.34026,2.34026,3.49654,3.49654,5.24532,5.24532,5.49873,5.42524,0.989998,0.978155,0.500115,0.506796,7:-21,-47:-21,9999,n/a,N/A,Unknown,N/A,0,0,2020-06-29T15:51:11.530,1920
0,50,,0,1.00364,-1.57896,1.27153,0,0,-16.3977:-38.9736:728.776,0.99,209:147 183x183,512,0.960442,opened,opened,0.999785,1,none,0.999511,2.29206,2.29206,4.18348,4.18348,5.24533,5.24533,5.29397,5.2433,0.99,0.413036,0.51873,0.523336,7:-20,-46:-20,9999,n/a,N/A,Unknown,N/A,0,0,2020-06-29T15:51:11.570,1960
0,51,,0,1.01191,-2.00763,1.17056,0,0,-15.0327:-38.763:728.778,0.99,210:146 183x183,512,0.950838,opened,opened,0.972358,0.992334,none,0.99947,1.8442,1.8442,5.12294,5.12294,4.80823,4.80823,4.47824,4.78327,0.989999,0.980945,0.592887,0.565157,8:-20,-46:-19,9999,n/a,N/A,Unknown,N/A,0,0,2020-06-29T15:51:11.610,2000
0,52,,0,1.00599,-3.45751,0.662364,0,0,-13.5322:-38.6084:728.779,0.983926,211:146 183x183,512,0.949887,opened,opened,0.937127,0.985049,none,0.99947,0.429495,0.429495,6.13563,6.13563,4.37113,5.24535,3.79325,4.14677,0.983925,0.966606,0.655159,0.623021,9:-19,-42:-19,9999,n/a,N/A,Unknown,N/A,0,0,2020-06-29T15:51:11.650,2040
0,53,,0,0.719781,-4.65505,0.854074,0,0,-10.9149:-38.4637:728.781,0.98234,214:147 183x183,512,0.940388,closed,opened,0.733152,0.999877,none,0.999438,3.50287,9999,6.09371,9999,4.80825,9999,3.89454,0,0.98234,0.98201,0.645951,1,13:-19,-39:-20,9999,n/a,N/A,Unknown,N/A,0,0,2020-06-29T15:51:11.690,2080
0,54,,0,-0.168471,-5.77433,0.724385,0,0,-8.04232:-38.8912:728.782,0.9138,217:146 183x183,512,0.930984,opened,opened,0.803853,0.999489,none,0.999438,-5.70465,-5.70465,6.29574,6.29574,4.37114,5.24537,4.31756,4.59761,0.913799,0.912025,0.607494,0.582036,17:-20,-34:-22,9999,n/a,N/A,Unknown,N/A,0,0,2020-06-29T15:51:11.730,2120
0,55,,0,-1.33379,-8.3366,0.702125,0,0,-3.42163:-39.3493:728.783,0.844672,221:147 183x183,512,0.921675,opened,opened,0.996669,0.999511,none,0.999179,-12.1226,-12.1226,4.50048,4.50048,4.37115,5.24538,5.24476,5.33655,0.844655,0.840639,0.523204,0.514859,21:-20,-30:-22,9999,n/a,N/A,Unknown,N/A,0,0,2020-06-29T15:51:11.770,2160
0,56,,0,-1.83406,-10.861,0.591892,0,0,1.91898:-39.9543:728.785,0.790904,225:147 183x183,512,0.912458,opened,opened,0.997514,0.998349,none,0.999179,-18.2401,-18.2401,3.60204,3.60204,4.37116,5.24539,4.73841,5.32667,0.788511,0.790784,0.569236,0.515758,24:-21,-29:-22,9999,n/a,N/A,Unknown,N/A,0,0,2020-06-29T15:51:11.810,2200
0,57,,0,-1.60887,-13.3165,-0.20549,0,0,6.81532:-40.4623:728.786,0.659751,227:147 183x183,512,0.903333,opened,opened,0.999061,0.992346,none,0.999013,-24.5341,-24.5341,2.02272,2.02272,4.80828,5.2454,4.87433,5.57187,0.566273,0.659738,0.556879,0.493466,25:-21,-27:-21,9999,n/a,N/A,Unknown,N/A,0,0,2020-06-29T15:51:11.850,2240
0,58,,0,-0.997524,-16.3453,-0.495282,0,0,11.9705:-40.6364:728.787,0.589761,230:148 183x183,512,0.8943,opened,opened,0.998092,0.998914,none,0.999013,-29.0752,-29.0752,0.367648,0.367648,4.37118,5.68253,4.71352,6.31348,0.143665,0.589748,0.571498,0.426047,27:-21,-24:-21,9999,n/a,N/A,Unknown,N/A,0,0,2020-06-29T15:51:11.890,2280
0,59,,0,-1.60935,-18.1419,-0.358741,0,0,15.6282:-40.9702:728.788,0.602745,231:147 183x183,512,0.885357,opened,opened,0.999234,0.99869,none,0.998717,-29.3916,-29.3916,0.555411,0.555411,4.37118,5.68254,4.62346,6.49817,0.599171,0.602694,0.579685,0.409257,27:-21,-22:-22,9999,n/a,N/A,Unknown,N/A,0,0,2020-06-29T15:51:11.930,2320
0,60,,0,-1.89578,-18.9585,0.171728,0,0,18.8578:-40.8806:728.789,0.680229,233:147 183x183,512,0.876503,opened,opened,0.998991,0.999085,none,0.998717,-28.7934,-28.7934,1.66247,1.66247,4.80831,5.24543,4.7274,6.21515,0.652948,0.675672,0.570236,0.434987,28:-22,-21:-22,9999,n/a,N/A,Unknown,N/A,0,0,2020-06-29T15:51:11.970,2360
0,61,,0,-1.05535,-19.9273,0.601837,0.264023,-1.24032,21.5474:-41.0671:728.855,0.865694,234:147 183x183,512,0.875627,opened,opened,0.999251,0.999609,none,0.998229,-28.559,-28.559,1.71083,1.71083,4.37158,5.2459,4.97264,6.083,0.865641,0.780031,0.547941,0.447,30:-21,-20:-22,9999,n/a,N/A,Unknown,N/A,0,0,2020-06-29T15:51:12.010,2400
0,62,,0,-0.821272,-19.874,0.870107,0.246232,-1.54579,23.7912:-41.1357:728.855,0.989147,236:147 183x183,512,0.866871,opened,opened,0.999722,0.999992,none,0.998229,-28.7713,-28.7713,1.86189,1.86189,4.37158,5.68306,5.28064,5.77449,0.927523,0.98856,0.519942,0.475047,32:-21,-18:-22,9999,n/a,N/A,Unknown,N/A,0,0,2020-06-29T15:51:12.050,2440
0,63,,0,-0.410064,-20.8134,0.895523,0.235646,-1.85656,26.3435:-40.8146:728.855,0.986634,237:147 183x183,512,0.866004,opened,opened,0.998189,0.998913,none,0.998154,-28.8302,-28.8302,2.07962,2.07962,3.93443,5.2459,4.83026,5.39753,0.735,0.986595,0.560886,0.509315,32:-21,-16:-22,9999,n/a,N/A,Unknown,N/A,0,0,2020-06-29T15:51:12.090,2480
0,64,,0,-0.896477,-23.7858,0.868106,0.217676,-2.20464,28.5752:-40.7221:728.855,0.732294,239:148 183x183,512,0.857344,opened,opened,0.947093,0.999049,none,0.998154,-29.8028,-29.8028,3.32753,3.32753,3.93443,5.2459,4.14324,4.96895,0.685979,0.729792,0.623341,0.548277,33:-20,-13:-21,9999,n/a,N/A,Unknown,N/A,0,0,2020-06-29T15:51:12.130,2520
0,65,,0,-2.0144,-26.0554,0.381591,0.1828,-2.57731,31.2461:-40.818:728.855,0.667522,241:148 183x183,512,0.84877,closed,closed,0.999785,0.994938,none,0.996366,9999,9999,9999,9999,9999,9999,0,0,0.667521,0.667009,1,1,9999:9999,9999:9999,9999,n/a,N/A,Unknown,N/A,0,0,2020-06-29T15:51:12.170,2560
0,66,,0,-2.97227,-26.892,-0.261383,0.13426,-2.95138,33.7684:-41.2505:728.855,0.665939,242:149 183x183,512,0.840283,closed,closed,0.99703,0.997932,none,0.996366,9999,9999,9999,9999,9999,9999,0,0,0.664847,0.665873,1,1,9999:9999,9999:9999,9999,n/a,N/A,Unknown,N/A,0,0,2020-06-29T15:51:12.210,2600
0,67,,0,-3.69015,-27.7244,0.0307119,0.0763147,-3.32673,36.0879:-41.6029:728.855,0.858009,243:149 183x183,512,0.839442,closed,closed,0.999695,0.999318,none,0.996333,9999,9999,9999,9999,9999,9999,0,0,0.857268,0.857975,1,1,9999:9999,9999:9999,9999,n/a,N/A,Unknown,N/A,0,0,2020-06-29T15:51:12.250,2640
0,68,,0,-3.56944,-28.5102,0.354236,0.0219004,-3.7026,38.0649:-41.9823:728.855,0.99,244:149 183x183,512,0.838603,closed,closed,0.999373,0.999873,none,0.996333,9999,9999,9999,9999,9999,9999,0,0,0.99,0.99,1,1,9999:9999,9999:9999,9999,n/a,N/A,Unknown,N/A,0,0,2020-06-29T15:51:12.290,2680
0,69,,0,-3.62555,-28.4211,0.448065,-0.0317385,-4.06611,39.6451:-42.2314:728.855,0.99,245:149 183x183,512,0.837765,closed,closed,0.99939,0.999003,none,0.996314,9999,9999,9999,9999,9999,9999,0,0,0.989823,0.989999,1,1,9999:9999,9999:9999,9999,n/a,N/A,Unknown,N/A,0,0,2020-06-29T15:51:12.330,2720
0,70,,0,-3.8632,-28.4907,0.679522,-0.0872669,-4.42009,40.2894:-42.9425:728.855,0.986946,246:148 183x183,512,0.829387,closed,closed,0.99948,0.999396,none,0.996314,9999,9999,9999,9999,9999,9999,0,0,0.986941,0.986946,1,1,9999:9999,9999:9999,9999,n/a,N/A,Unknown,N/A,0,0,2020-06-29T15:51:12.370,2760
0,71,,0,-4.80542,-28.5412,1.05593,-0.154669,-4.76468,40.8404:-43.4594:728.855,0.988928,247:148 183x183,512,0.828557,closed,closed,0.99922,0.999878,none,0.996303,9999,9999,9999,9999,9999,9999,0,0,0.988923,0.988926,1,1,9999:9999,9999:9999,9999,n/a,N/A,Unknown,N/A,0,0,2020-06-29T15:51:12.410,2800
0,72,,0,-5.23641,-28.6923,1.13067,-0.226243,-5.10169,41.9278:-44.1032:728.855,0.988772,249:148 183x183,512,0.820272,closed,closed,0.999128,0.999199,none,0.996303,9999,9999,9999,9999,9999,9999,0,0,0.988678,0.988764,1,1,9999:9999,9999:9999,9999,n/a,N/A,Unknown,N/A,0,0,2020-06-29T15:51:12.450,2840
0,73,,0,-4.9712,-29.7125,0.942539,-0.292145,-5.4435,43.2697:-44.2634:728.855,0.98704,250:148 183x183,512,0.819452,closed,closed,0.9989,0.997873,none,0.996236,9999,9999,9999,9999,9999,9999,0,0,0.986005,0.987039,1,1,9999:9999,9999:9999,9999,n/a,N/A,Unknown,N/A,0,0,2020-06-29T15:51:12.490,2880
0,74,,0,-4.91915,-30.4413,0.131842,-0.355529,-5.78594,45.3916:-43.4407:728.855,0.988729,251:149 183x183,512,0.811257,closed,closed,0.999696,0.995444,none,0.996236,9999,9999,9999,9999,9999,9999,0,0,0.959356,0.988729,1,1,9999:9999,9999:9999,9999,n/a,N/A,Unknown,N/A,0,0,2020-06-29T15:51:12.530,2920
0,75,,0,-5.37765,-31.0044,-0.0220244,-0.423395,-6.12673,48.0557:-43.8771:728.855,0.984612,252:149 183x183,512,0.810446,closed,closed,0.999466,0.994511,none,0.996085,9999,9999,9999,9999,9999,9999,0,0,0.957882,0.984611,1,1,9999:9999,9999:9999,9999,n/a,N/A,Unknown,N/A,0,0,2020-06-29T15:51:12.570,2960
0,76,,0,-6.39647,-31.9612,0.41904,-0.503036,-6.47119,50.4065:-44.1904:728.855,0.983802,253:149 183x183,512,0.809635,closed,closed,0.999734,0.966657,none,0.996085,9999,9999,9999,9999,9999,9999,0,0,0.952922,0.983802,1,1,9999:9999,9999:9999,9999,n/a,N/A,Unknown,N/A,0,0,2020-06-29T15:51:12.610,3000
0,77,,0,-5.53026,-32.907,0.290402,-0.569184,-6.81903,53.0931:-43.9648:728.855,0.989266,253:150 183x183,512,0.808826,closed,closed,0.998519,0.972489,none,0.995851,9999,9999,9999,9999,9999,9999,0,0,0.846192,0.98925,1,1,9999:9999,9999:9999,9999,n/a,N/A,Unknown,N/A,0,0,2020-06-29T15:51:12.650,3040
0,78,,0,-4.37698,-36.1706,-1.77687,-0.569184,-6.81903,56.4214:-44.031:728.855,0.65156,259:151 183x183,512,0.800738,opened,opened,0.999964,0.989541,none,0.995851,-29.4,-29.4,4.5631,4.5631,3.06011,5.2459,2.14556,4.97933,0.0101193,0.651555,0.804949,0.547334,52:-13,17:-18,9999,n/a,N/A,Unknown,N/A,0,0,2020-06-29T15:51:12.690,3080
0,79,,0,-5.09592,-40.3004,-4.35627,-0.569184,-6.81903,59.2279:-42.3595:728.855,0.543388,260:151 183x183,512,0.799937,opened,opened,0.999998,0.967966,none,0.995127,9999,-37.9163,9999,8.91779,9999,5.2459,9999,4.796,0,0.543387,9999,0.564,9999:9999,9999:9999,9999,n/a,N/A,Unknown,N/A,0,0,2020-06-29T15:51:12.730,3120
0,80,,0,-7.3686,-40.2886,-2.98833,-0.569184,-6.81903,61.6589:-41.3435:728.855,0.571611,261:151 183x183,512,0.799137,opened,opened,0.999985,0.972105,none,0.995127,9999,-41.5181,9999,10.3035,9999,5.2459,9999,4.78732,0,0.57161,9999,0.564789,9999:9999,9999:9999,9999,n/a,N/A,Unknown,N/A,0,0,2020-06-29T15:51:12.770,3160
0,81,,0,-8.14354,-40.5228,-2.12259,-0.569184,-6.81903,63.6789:-41.2773:728.855,0.633159,262:151 183x183,512,0.798338,opened,opened,0.999975,0.932079,none,0.993693,9999,-44.5663,9999,10.8063,9999,4.80874,9999,4.84321,0,0.633151,9999,0.559708,9999:9999,9999:9999,9999,n/a,N/A,Unknown,N/A,0,0,2020-06-29T15:51:12.810,3200
0,82,,0,-7.0967,-42.2747,-2.49504,-0.569184,-6.81903,64.9229:-40.9936:728.855,0.970732,262:151 183x183,512,0.797539,opened,opened,0.999978,0.932079,none,0.993693,9999,-45.7896,9999,10.4392,9999,5.2459,9999,4.86997,0,0.92218,9999,0.557275,9999:9999,9999:9999,9999,n/a,N/A,Unknown,N/A,0,0,2020-06-29T15:51:12.850,3240
0,83,,0,-6.81312,-43.2811,-2.06416,-0.569184,-6.81903,66.221:-41.7199:728.855,0.978152,263:151 183x183,512,0.796742,opened,opened,0.999968,0.932079,none,0.993064,9999,-47.3777,9999,9.9962,9999,4.80874,9999,4.64936,0,0.974759,9999,0.577331,9999:9999,9999:9999,9999,n/a,N/A,Unknown,N/A,0,0,2020-06-29T15:51:12.890,3280
0,84,,0,-8.59429,-42.9856,-1.94274,-0.569184,-6.81903,67.8586:-41.2625:728.855,0.978054,264:152 183x183,512,0.788775,opened,opened,0.99995,0.932079,none,0.993064,9999,-47.4227,9999,9.80448,9999,5.2459,9999,4.24132,0,0.775767,9999,0.614426,9999:9999,9999:9999,9999,n/a,N/A,Unknown,N/A,0,0,2020-06-29T15:51:12.930,3320
0,85,,0,-9.82984,-42.6931,-1.53673,-0.569184,-6.81903,69.1826:-40.6143:728.855,0.975801,264:152 183x183,512,0.787986,opened,unknown,0.99965,0.79917,none,0.992155,9999,-46.6241,9999,9.35251,9999,5.2459,9999,4.4645,0,0.961108,9999,0.594137,9999:9999,9999:9999,9999,n/a,N/A,Unknown,N/A,0,0,2020-06-29T15:51:12.970,3360
0,86,,0,-8.44807,-45.6306,-1.16142,-0.569184,-6.81903,70.0565:-41.0523:728.855,0.889709,264:151 183x183,512,0.787198,opened,unknown,0.999781,0.79917,none,0.992155,9999,-46.6857,9999,9.44126,9999,5.2459,9999,4.99801,0,0.889382,9999,0.545635,9999:9999,9999:9999,9999,n/a,N/A,Unknown,N/A,0,0,2020-06-29T15:51:13.010,3400
0,87,,0,-9.37049,-47.7548,-2.64199,-0.569184,-6.81903,70.6536:-41.0524:728.855,0.853221,264:152 183x183,512,0.786411,opened,opened,0.999479,0.856081,none,0.991813,9999,-47.5447,9999,9.56717,9999,5.2459,9999,4.83761,0,0.853221,9999,0.560218,9999:9999,9999:9999,9999,n/a,N/A,Unknown,N/A,0,0,2020-06-29T15:51:13.050,3440
0,88,,0,-10.6523,-47.5896,-3.08409,-0.569184,-6.81903,70.9153:-41.7908:728.855,0.827471,265:151 183x183,512,0.778547,opened,opened,0.999876,0.856081,none,0.991813,9999,-46.9469,9999,8.56139,9999,4.80874,9999,4.62863,0,0.82747,9999,0.579216,9999:9999,9999:9999,9999,n/a,N/A,Unknown,N/A,0,0,2020-06-29T15:51:13.090,3480
0,89,,0,-10.3284,-48.2907,-2.61124,-0.569184,-6.81903,71.5108:-42.1338:728.855,0.900061,265:151 183x183,512,0.777768,opened,unknown,0.999729,0.728006,none,0.990953,9999,-45.9999,9999,7.76206,9999,4.80874,9999,4.30958,0,0.90006,9999,0.60822,9999:9999,9999:9999,9999,n/a,N/A,Unknown,N/A,0,0,2020-06-29T15:51:13.130,3520
0,90,,0,-10.0742,-48.9214,-3.27301,-0.569184,-6.81903,72.6874:-42.1455:728.855,0.987976,266:151 183x183,512,0.77699,opened,unknown,0.999857,0.851376,none,0.990953,9999,-45.1741,9999,7.90583,9999,5.2459,9999,4.0765,0,0.987976,9999,0.629409,9999:9999,9999:9999,9999,n/a,N/A,Unknown,N/A,0,0,2020-06-29T15:51:13.170,3560
0,91,,0,-9.19563,-48.3404,-2.73066,-0.569184,-6.81903,73.8127:-42.1477:728.855,0.989991,267:151 183x183,512,0.776213,opened,unknown,0.999746,0.851376,none,0.990106,9999,-43.864,9999,7.81364,9999,5.2459,9999,3.84577,0,0.989317,9999,0.650385,9999:9999,9999:9999,9999,n/a,N/A,Unknown,N/A,0,0,2020-06-29T15:51:13.210,3600
0,92,,0,-9.48474,-48.2592,-2.1569,-0.569184,-6.81903,75.3132:-41.7847:728.855,0.99,269:151 183x183,512,0.768451,opened,unknown,0.99972,0.851376,none,0.990106,9999,-43.9895,9999,7.73852,9999,4.80874,9999,3.82223,0,0.725825,9999,0.652525,9999:9999,9999:9999,9999,n/a,N/A,Unknown,N/A,0,0,2020-06-29T15:51:13.250,3640
0,93,,0,-9.92782,-49.602,-1.61972,-0.569184,-6.81903,76.4145:-41.8522:728.855,0.989896,269:151 183x183,512,0.767683,opened,unknown,0.999805,0.851376,none,0.98686,9999,-45.8856,9999,8.12043,9999,4.80874,9999,4.38214,0,0.989896,9999,0.601623,9999:9999,9999:9999,9999,n/a,N/A,Unknown,N/A,0,0,2020-06-29T15:51:13.290,3680
0,94,,0,-9.66456,-50.4941,-0.362997,-0.569184,-6.81903,77.2029:-41.5874:728.855,0.985488,269:151 183x183,512,0.766915,opened,unknown,0.999596,1,none,0.98686,9999,-48.8877,9999,8.42592,9999,4.80874,9999,3.99723,0,0.985488,9999,0.636615,9999:9999,9999:9999,9999,n/a,N/A,Unknown,N/A,0,0,2020-06-29T15:51:13.330,3720
0,95,,0,-9.75311,-50.2981,-0.210096,-0.569184,-6.81903,78.3474:-41.1908:728.855,0.987521,270:151 183x183,512,0.766148,opened,unknown,0.999858,1,none,0.985816,9999,-52.6261,9999,8.79279,9999,5.2459,9999,3.72395,0,0.987521,9999,0.66146,9999:9999,9999:9999,9999,n/a,N/A,Unknown,N/A,0,0,2020-06-29T15:51:13.370,3760
0,96,,0,-9.31993,-50.1556,-0.364175,-0.569184,-6.81903,79.0183:-40.9711:728.855,0.989958,270:151 183x183,512,0.765382,opened,unknown,0.999857,1,none,0.985816,9999,-55.7717,9999,9.95957,9999,4.80874,9999,3.96962,0,0.989958,9999,0.639125,9999:9999,9999:9999,9999,n/a,N/A,Unknown,N/A,0,0,2020-06-29T15:51:13.410,3800
0,97,,0,-9.20241,-50.6696,0.847689,-0.569184,-6.81903,79.4613:-40.8072:728.855,0.989821,270:151 183x183,512,0.764616,opened,unknown,0.999951,1,none,0.984992,9999,-57.5167,9999,11.4019,9999,4.80874,9999,3.92715,0,0.989782,9999,0.642987,9999:9999,9999:9999,9999,n/a,N/A,Unknown,N/A,0,0,2020-06-29T15:51:13.450,3840
0,98,,0,-9.25667,-50.9467,1.81918,-0.569184,-6.81903,80.0838:-40.3756:728.855,0.989589,270:151 183x183,512,0.763852,opened,unknown,0.999889,1,none,0.984992,9999,-58.2082,9999,12.9668,9999,5.2459,9999,4.09408,0,0.98945,9999,0.627811,9999:9999,9999:9999,9999,n/a,N/A,Unknown,N/A,0,0,2020-06-29T15:51:13.490,3880
0,99,,0,-8.95073,-51.0887,1.53822,-0.569184,-6.81903,80.5951:-40.1112:728.855,0.989595,271:151 183x183,512,0.763088,opened,unknown,0.999931,1,none,0.98506,9999,-58.0337,9999,14.2203,9999,4.80874,9999,4.07342,0,0.989595,9999,0.629689,9999:9999,9999:9999,9999,n/a,N/A,Unknown,N/A,0,0,2020-06-29T15:51:13.530,3920
0,100,,0,-9.10031,-50.2732,0.753303,-0.569184,-6.81903,81.0295:-39.9794:728.855,0.989982,272:151 183x183,512,0.762325,opened,unknown,0.999778,1,none,0.98506,9999,-56.5066,9999,14.5509,9999,4.80874,9999,3.44071,0,0.98998,9999,0.687208,9999:9999,9999:9999,9999,n/a,N/A,Unknown,N/A,0,0,2020-06-29T15:51:13.570,3960
0,101,,0,-8.92079,-49.7771,-0.0791133,-0.569184,-6.81903,81.8038:-39.7146:728.855,0.989947,273:151 183x183,512,0.761563,opened,opened,0.999653,0.816355,none,0.984633,9999,-56.3511,9999,14.0375,9999,4.37158,9999,3.62272,0,0.989947,9999,0.670662,9999:9999,9999:9999,9999,n/a,N/A,Unknown,N/A,0,0,2020-06-29T15:51:13.610,4000
0,102,,0,-9.45891,-50.7604,0.505716,-0.569184,-6.81903,82.4959:-39.6259:728.855,0.989993,273:151 183x183,512,0.760801,opened,unknown,0.999651,1,none,0.984633,9999,-55.912,9999,13.2488,9999,5.2459,9999,4.19012,0,0.989969,9999,0.61908,9999:9999,9999:9999,9999,n/a,N/A,Unknown,N/A,0,0,2020-06-29T15:51:13.650,4040
0,103,,0,-9.78418,-52.0279,1.29285,-0.569184,-6.81903,83.1529:-39.4763:728.855,0.989229,274:151 183x183,512,0.76004,opened,unknown,0.999636,1,none,0.984136,9999,-53.5096,9999,12.1114,9999,4.37158,9999,3.85425,0,0.989229,9999,0.649614,9999:9999,9999:9999,9999,n/a,N/A,Unknown,N/A,0,0,2020-06-29T15:51:13.690,4080
0,104,,0,-9.20437,-52.3957,0.48529,-0.569184,-6.81903,83.9683:-39.3689:728.855,0.987247,275:151 183x183,512,0.75928,opened,unknown,0.999632,1,none,0.984136,9999,-53.2191,9999,11.508,9999,4.80874,9999,4.09731,0,0.987247,9999,0.627518,9999:9999,9999:9999,9999,n/a,N/A,Unknown,N/A,0,0,2020-06-29T15:51:13.730,4120
0,105,,0,-9.60123,-52.9213,1.71032,-0.569184,-6.81903,84.7322:-39.4305:728.855,0.97586,276:151 183x183,512,0.758521,opened,unknown,0.999571,1,none,0.98381,9999,-54.2257,9999,11.7069,9999,5.2459,9999,4.37017,0,0.97586,9999,0.602712,9999:9999,9999:9999,9999,n/a,N/A,Unknown,N/A,0,0,2020-06-29T15:51:13.770,4160
0,106,,0,-9.46845,-53.3564,2.2307,-0.569184,-6.81903,85.4697:-39.379:728.855,0.98455,276:151 183x183,512,0.757762,opened,unknown,0.999241,1,none,0.98381,9999,-52.8395,9999,11.894,9999,4.80874,9999,3.85137,0,0.98455,9999,0.649876,9999:9999,9999:9999,9999,n/a,N/A,Unknown,N/A,0,0,2020-06-29T15:51:13.810,4200
0,107,,0,-7.76309,-53.1003,1.53539,-0.569184,-6.81903,86.2275:-39.1764:728.855,0.982446,277:152 183x183,512,0.750185,opened,unknown,0.999485,1,none,0.983504,9999,-52.7643,9999,12.1674,9999,4.37158,9999,3.81881,0,0.982446,9999,0.652835,9999:9999,9999:9999,9999,n/a,N/A,Unknown,N/A,0,0,2020-06-29T15:51:13.850,4240
0,108,,0,-7.13547,-54.3922,3.14417,-0.569184,-6.81903,87.0969:-38.8581:728.855,0.961221,277:151 183x183,512,0.749435,opened,unknown,0.900101,1,none,0.983504,9999,-55.082,9999,13.8546,9999,4.37158,9999,3.11075,0,0.949061,9999,0.717204,9999:9999,9999:9999,9999,n/a,N/A,Unknown,N/A,0,0,2020-06-29T15:51:13.890,4280
0,109,,0,-8.20928,-55.7024,4.52152,-0.569184,-6.81903,87.851:-38.5797:728.855,0.974657,278:151 183x183,512,0.748685,opened,unknown,0.900101,1,none,0.983211,9999,-52.8758,9999,16.5158,9999,4.37158,9999,2.24607,0,0.974442,9999,0.795811,9999:9999,9999:9999,9999,n/a,N/A,Unknown,N/A,0,0,2020-06-29T15:51:13.930,4320
0,110,,0,-8.23973,-55.5029,4.25125,-0.569184,-6.81903,88.5473:-38.4451:728.855,0.975483,278:151 183x183,512,0.747937,opened,unknown,0.95319,1,none,0.983211,9999,-50.5103,9999,18.4298,9999,4.37158,9999,2.54522,0,0.97528,9999,0.768617,9999:9999,9999:9999,9999,n/a,N/A,Unknown,N/A,0,0,2020-06-29T15:51:13.970,4360
0,111,,0,-7.9147,-54.6777,1.99681,-0.569184,-6.81903,89.0057:-38.5974:728.855,0.969141,278:151 183x183,512,0.747189,opened,unknown,0.998222,1,none,0.983099,9999,-51.0567,9999,20.1383,9999,4.37158,9999,3.21167,0,0.969135,9999,0.70803,9999:9999,9999:9999,9999,n/a,N/A,Unknown,N/A,0,0,2020-06-29T15:51:14.010,4400
0,112,,0,-7.1917,-53.6315,0.800667,-0.569184,-6.81903,89.2332:-38.3424:728.855,0.950855,278:152 183x183,512,0.746441,opened,unknown,0.996815,1,none,0.983099,9999,-49.3194,9999,21.5711,9999,4.37158,9999,3.81823,0,0.950855,9999,0.652889,9999:9999,9999:9999,9999,n/a,N/A,Unknown,N/A,0,0,2020-06-29T15:51:14.050,4440
0,113,,0,-6.94934,-53.864,1.78432,-0.569184,-6.81903,89.2838:-38.2222:728.855,0.961805,278:151 183x183,512,0.745695,opened,unknown,0.999355,1,none,0.983067,9999,-46.1347,9999,21.1728,9999,4.37158,9999,3.43993,0,0.961805,9999,0.687279,9999:9999,9999:9999,9999,n/a,N/A,Unknown,N/A,0,0,2020-06-29T15:51:14.090,4480
0,114,,0,-7.33745,-54.6186,1.39272,-0.569184,-6.81903,89.2326:-38.1055:728.855,0.986684,278:151 183x183,512,0.744949,opened,unknown,0.999191,1,none,0.983067,9999,-46.4649,9999,19.0114,9999,4.37158,9999,3.4473,0,0.986684,9999,0.686609,9999:9999,9999:9999,9999,n/a,N/A,Unknown,N/A,0,0,2020-06-29T15:51:14.130,4520
0,115,,0,-7.50354,-54.1476,0.373583,-0.569184,-6.81903,89.005:-38.0799:728.855,0.989991,277:151 183x183,512,0.744204,opened,unknown,0.999644,1,none,0.982833,9999,-47.0406,9999,16.8135,9999,4.80874,9999,3.93472,0,0.989991,9999,0.642298,9999:9999,9999:9999,9999,n/a,N/A,Unknown,N/A,0,0,2020-06-29T15:51:14.170,4560
0,116,,0,-7.75582,-54.3917,1.68603,-0.569184,-6.81903,88.8959:-38.0705:728.855,0.989184,277:151 183x183,512,0.74346,opened,unknown,0.998824,1,none,0.982833,9999,-46.4344,9999,14.8044,9999,4.37158,9999,3.68473,0,0.989184,9999,0.665024,9999:9999,9999:9999,9999,n/a,N/A,Unknown,N/A,0,0,2020-06-29T15:51:14.210,4600
0,117,,0,-8.14695,-54.9374,1.06199,-0.569184,-6.81903,88.512:-38.2678:728.855,0.97905,276:151 183x183,512,0.742717,opened,unknown,0.999375,1,none,0.982901,9999,-47.1838,9999,13.5706,9999,3.93443,9999,3.33061,0,0.979046,9999,0.697218,9999:9999,9999:9999,9999,n/a,N/A,Unknown,N/A,0,0,2020-06-29T15:51:14.250,4640
0,118,,0,-8.3959,-53.7757,1.29245,-0.569184,-6.81903,88.3425:-38.3572:728.855,0.963397,277:151 183x183,512,0.741974,opened,unknown,0.999309,1,none,0.982901,9999,-47.1275,9999,12.8712,9999,4.37158,9999,3.49482,0,0.963397,9999,0.682289,9999:9999,9999:9999,9999,n/a,N/A,Unknown,N/A,0,0,2020-06-29T15:51:14.290,4680
0,119,,0,-7.28217,-54.4965,3.56071,-0.569184,-6.81903,88.4482:-38.3148:728.855,0.944915,277:151 183x183,512,0.741232,opened,unknown,0.963817,1,none,0.983412,9999,-47.0299,9999,13.4215,9999,4.37158,9999,3.04478,0,0.944911,9999,0.723202,9999:9999,9999:9999,9999,n/a,N/A,Unknown,N/A,0,0,2020-06-29T15:51:14.330,4720
0,120,,0,-6.93214,-55.6516,3.70329,-0.569184,-6.81903,88.4899:-38.4776:728.855,0.953429,277:151 183x183,512,0.740491,closed,unknown,0.999987,1,none,0.983412,9999,9999,9999,9999,9999,9999,9999,0,0,0.953429,9999,1,9999:9999,9999:9999,9999,n/a,N/A,Unknown,N/A,0,0,2020-06-29T15:51:14.370,4760
0,121,,0,-5.99848,-54.8215,2.24029,-0.569184,-6.81903,88.8853:-37.885:728.855,0.93931,277:152 183x183,512,0.73975,closed,unknown,0.999949,1,none,0.984291,9999,9999,9999,9999,9999,9999,9999,0,0,0.93931,9999,1,9999:9999,9999:9999,9999,n/a,N/A,Unknown,N/A,0,0,2020-06-29T15:51:14.410,4800
0,122,,0,-5.32402,-55.3043,1.37616,-0.569184,-6.81903,88.9689:-37.9273:728.855,0.986849,277:151 183x183,512,0.739011,closed,unknown,0.999685,1,none,0.984291,9999,9999,9999,9999,9999,9999,9999,0,0,0.986751,9999,1,9999:9999,9999:9999,9999,n/a,N/A,Unknown,N/A,0,0,2020-06-29T15:51:14.450,4840
0,123,,0,-6.86277,-56.1066,2.16377,-0.569184,-6.81903,88.9282:-38.0948:728.855,0.988848,277:151 183x183,512,0.738272,closed,unknown,0.999847,1,none,0.984603,9999,9999,9999,9999,9999,9999,9999,0,0,0.988847,9999,1,9999:9999,9999:9999,9999,n/a,N/A,Unknown,N/A,0,0,2020-06-29T15:51:14.490,4880
0,124,,0,-6.58608,-55.4979,1.84755,-0.569184,-6.81903,88.9271:-37.8418:728.855,0.988006,277:152 183x183,512,0.737533,closed,unknown,0.999881,1,none,0.984603,9999,9999,9999,9999,9999,9999,9999,0,0,0.988004,9999,1,9999:9999,9999:9999,9999,n/a,N/A,Unknown,N/A,0,0,2020-06-29T15:51:14.530,4920
0,125,,0,-6.53273,-55.4285,1.40738,-0.569184,-6.81903,88.7913:-38.4704:728.855,0.98739,277:151 183x183,512,0.736796,closed,unknown,0.99997,1,none,0.985365,9999,9999,9999,9999,9999,9999,9999,0,0,0.987375,9999,1,9999:9999,9999:9999,9999,n/a,N/A,Unknown,N/A,0,0,2020-06-29T15:51:14.570,4960
0,126,,0,-7.19355,-55.6227,1.55147,-0.569184,-6.81903,88.9306:-38.0123:728.855,0.98998,277:152 183x183,512,0.736059,closed,unknown,0.99979,1,none,0.985365,9999,9999,9999,9999,9999,9999,9999,0,0,0.989764,9999,1,9999:9999,9999:9999,9999,n/a,N/A,Unknown,N/A,0,0,2020-06-29T15:51:14.610,5000
0,127,,0,-6.94798,-55.5883,1.92934,-0.569184,-6.81903,89.0357:-37.5139:728.855,0.989996,277:152 183x183,512,0.735323,closed,unknown,0.999963,1,none,0.985134,9999,9999,9999,9999,9999,9999,9999,0,0,0.989779,9999,1,9999:9999,9999:9999,9999,n/a,N/A,Unknown,N/A,0,0,2020-06-29T15:51:14.650,5040
0,128,,0,-6.96571,-55.8895,1.84224,-0.569184,-6.81903,89.0468:-37.5005:728.855,0.99,277:152 183x183,512,0.734588,closed,unknown,0.999989,1,none,0.985134,9999,9999,9999,9999,9999,9999,9999,0,0,0.985113,9999,1,9999:9999,9999:9999,9999,n/a,N/A,Unknown,N/A,0,0,2020-06-29T15:51:14.690,5080
0,129,,0,-6.07966,-55.6566,0.64787,-0.569184,-6.81903,89.281:-36.9497:728.855,0.989995,278:152 183x183,512,0.733853,closed,unknown,0.999961,1,none,0.985584,9999,9999,9999,9999,9999,9999,9999,0,0,0.989378,9999,1,9999:9999,9999:9999,9999,n/a,N/A,Unknown,N/A,0,0,2020-06-29T15:51:14.730,5120
0,130,,0,-5.81893,-55.7612,1.64738,-0.569184,-6.81903,89.2829:-36.8764:728.855,0.988056,277:152 183x183,512,0.733119,closed,unknown,0.999981,1,none,0.985584,9999,9999,9999,9999,9999,9999,9999,0,0,0.988015,9999,1,9999:9999,9999:9999,9999,n/a,N/A,Unknown,N/A,0,0,2020-06-29T15:51:14.770,5160
0,131,,0,-5.95787,-56.1793,2.06341,-0.569184,-6.81903,89.3444:-36.7827:728.855,0.986516,277:152 183x183,512,0.732386,closed,unknown,0.999862,1,none,0.98605,9999,9999,9999,9999,9999,9999,9999,0,0,0.986027,9999,1,9999:9999,9999:9999,9999,n/a,N/A,Unknown,N/A,0,0,2020-06-29T15:51:14.810,5200
0,132,,0,-6.10733,-55.8343,1.49108,-0.569184,-6.81903,89.3058:-36.8209:728.855,0.986515,277:152 183x183,512,0.731654,closed,unknown,0.999981,1,none,0.98605,9999,9999,9999,9999,9999,9999,9999,0,0,0.927577,9999,1,9999:9999,9999:9999,9999,n/a,N/A,Unknown,N/A,0,0,2020-06-29T15:51:14.850,5240
0,133,,0,-6.54961,-55.9202,2.1895,-0.569184,-6.81903,89.188:-37.1512:728.855,0.986029,277:151 183x183,512,0.730922,closed,unknown,0.999996,1,none,0.989086,9999,9999,9999,9999,9999,9999,9999,0,0,0.985844,9999,1,9999:9999,9999:9999,9999,n/a,N/A,Unknown,N/A,0,0,2020-06-29T15:51:14.890,5280
0,134,,0,-6.42805,-56.4234,2.00101,-0.569184,-6.81903,89.1485:-37.6198:728.855,0.989966,277:151 183x183,512,0.730191,closed,unknown,0.999986,1,none,0.989086,9999,9999,9999,9999,9999,9999,9999,0,0,0.989826,9999,1,9999:9999,9999:9999,9999,n/a,N/A,Unknown,N/A,0,0,2020-06-29T15:51:14.930,5320
0,135,,0,-7.23585,-56.5098,1.98296,-0.569184,-6.81903,88.8838:-37.6175:728.855,0.98999,276:152 183x183,512,0.722889,closed,unknown,0.999908,1,none,0.990433,9999,9999,9999,9999,9999,9999,9999,0,0,0.979704,9999,1,9999:9999,9999:9999,9999,n/a,N/A,Unknown,N/A,0,0,2020-06-29T15:51:14.970,5360
0,136,,0,-7.29821,-56.3047,1.03948,-0.569184,-6.81903,88.7144:-37.9099:728.855,0.989979,276:151 183x183,512,0.722166,closed,unknown,0.999919,1,none,0.990433,9999,9999,9999,9999,9999,9999,9999,0,0,0.989969,9999,1,9999:9999,9999:9999,9999,n/a,N/A,Unknown,N/A,0,0,2020-06-29T15:51:15.010,5400
0,137,,0,-7.23654,-56.0893,0.202888,-0.569184,-6.81903,88.3393:-37.6231:728.855,0.989924,276:152 183x183,512,0.721444,closed,unknown,0.99978,1,none,0.991361,9999,9999,9999,9999,9999,9999,9999,0,0,0.989896,9999,1,9999:9999,9999:9999,9999,n/a,N/A,Unknown,N/A,0,0,2020-06-29T15:51:15.050,5440
0,138,,0,-7.82888,-56.0098,1.17113,-0.569184,-6.81903,88.0004:-37.2742:728.855,0.989955,276:152 183x183,512,0.720723,closed,unknown,0.999919,1,none,0.991361,9999,9999,9999,9999,9999,9999,9999,0,0,0.947125,9999,1,9999:9999,9999:9999,9999,n/a,N/A,Unknown,N/A,0,0,2020-06-29T15:51:15.090,5480
0,139,,0,-6.92634,-55.9541,0.879268,-0.569184,-6.81903,87.9075:-37.3788:728.855,0.989785,276:152 183x183,512,0.720002,closed,unknown,0.999894,1,none,0.991655,9999,9999,9999,9999,9999,9999,9999,0,0,0.982815,9999,1,9999:9999,9999:9999,9999,n/a,N/A,Unknown,N/A,0,0,2020-06-29T15:51:15.130,5520
0,140,,0,-6.7153,-56.059,0.41064,-0.569184,-6.81903,87.7076:-37.1309:728.855,0.989997,276:152 183x183,512,0.719282,closed,unknown,0.999941,1,none,0.991655,9999,9999,9999,9999,9999,9999,9999,0,0,0.989463,9999,1,9999:9999,9999:9999,9999,n/a,N/A,Unknown,N/A,0,0,2020-06-29T15:51:15.170,5560
0,141,,0,-7.67989,-56.5034,1.24558,-0.569184,-6.81903,87.6742:-37.4316:728.855,0.989998,276:151 183x183,512,0.718563,closed,unknown,0.999806,1,none,0.992545,9999,9999,9999,9999,9999,9999,9999,0,0,0.982016,9999,1,9999:9999,9999:9999,9999,n/a,N/A,Unknown,N/A,0,0,2020-06-29T15:51:15.210,5600
0,142,,0,-7.92014,-57.1581,2.44624,-0.569184,-6.81903,87.6104:-37.7548:728.855,0.987671,276:151 183x183,512,0.717844,closed,unknown,0.937354,1,none,0.992545,9999,9999,9999,9999,9999,9999,9999,0,0,0.987671,9999,1,9999:9999,9999:9999,9999,n/a,N/A,Unknown,N/A,0,0,2020-06-29T15:51:15.250,5640
0,143,,0,-7.73497,-56.2643,1.89927,-0.569184,-6.81903,87.6422:-37.7168:728.855,0.986399,276:152 183x183,512,0.717126,opened,unknown,0.999827,1,none,0.99252,9999,-54.3066,9999,13.1015,9999,5.2459,9999,3.15573,0,0.986399,9999,0.713116,9999:9999,9999:9999,9999,n/a,N/A,Unknown,N/A,0,0,2020-06-29T15:51:15.290,5680
0,144,,0,-7.90771,-55.4748,1.61722,-0.569184,-6.81903,87.7347:-37.5426:728.855,0.988468,276:152 183x183,512,0.716409,opened,unknown,0.999971,1,none,0.99252,9999,-54.2313,9999,12.8461,9999,4.37158,9999,4.47023,0,0.98243,9999,0.593615,9999:9999,9999:9999,9999,n/a,N/A,Unknown,N/A,0,0,2020-06-29T15:51:15.330,5720
0,145,,0,-8.68379,-55.5606,3.69692,-0.569184,-6.81903,87.7316:-37.1619:728.855,0.975946,276:152 183x183,512,0.715693,opened,unknown,0.999875,1,none,0.992719,9999,-55.048,9999,12.575,9999,4.37158,9999,4.151,0,0.967763,9999,0.622637,9999:9999,9999:9999,9999,n/a,N/A,Unknown,N/A,0,0,2020-06-29T15:51:15.370,5760
0,146,,0,-8.71117,-54.9299,3.95243,-0.569184,-6.81903,87.8223:-36.6287:728.855,0.980627,276:152 183x183,512,0.714977,opened,unknown,0.999938,1,none,0.992719,9999,-54.19,9999,12.5441,9999,4.80874,9999,4.72091,0,0.980615,9999,0.570826,9999:9999,9999:9999,9999,n/a,N/A,Unknown,N/A,0,0,2020-06-29T15:51:15.410,5800
0,147,,0,-7.89329,-54.7018,3.46439,-0.569184,-6.81903,87.7357:-36.5703:728.855,0.979897,276:152 183x183,512,0.714262,opened,unknown,0.999974,1,none,0.992966,9999,-53.4816,9999,12.7777,9999,5.2459,9999,4.9942,0,0.979749,9999,0.545982,9999:9999,9999:9999,9999,n/a,N/A,Unknown,N/A,0,0,2020-06-29T15:51:15.450,5840
0,148,,0,-7.64836,-54.3325,3.74067,-0.569184,-6.81903,87.5488:-36.7065:728.855,0.99,276:152 183x183,512,0.713548,opened,unknown,0.999535,1,none,0.992966,9999,-53.6774,9999,13.1341,9999,4.37158,9999,4.5196,0,0.989963,9999,0.589127,9999:9999,9999:9999,9999,n/a,N/A,Unknown,N/A,0,0,2020-06-29T15:51:15.490,5880
0,149,,0,-8.40097,-53.6506,2.61686,-0.569184,-6.81903,87.2837:-36.8828:728.855,0.989019,275:152 183x183,512,0.712834,opened,unknown,0.999896,1,none,0.992963,9999,-53.3457,9999,13.1999,9999,5.2459,9999,4.83296,0,0.989018,9999,0.56064,9999:9999,9999:9999,9999,n/a,N/A,Unknown,N/A,0,0,2020-06-29T15:51:15.530,5920
0,150,,0,-8.94317,-54.0856,2.17123,-0.569184,-6.81903,86.9869:-37.2602:728.855,0.989927,275:151 183x183,512,0.712122,opened,unknown,0.999979,1,none,0.992963,9999,-51.9332,9999,13.474,9999,5.2459,9999,5.09213,0,0.989309,9999,0.537079,9999:9999,9999:9999,9999,n/a,N/A,Unknown,N/A,0,0,2020-06-29T15:51:15.570,5960
0,151,,0,-8.87331,-54.0152,3.74805,-0.569184,-6.81903,86.6192:-37.2721:728.855,0.989104,275:152 183x183,512,0.71141,opened,unknown,0.999981,1,none,0.992709,9999,-51.487,9999,13.9197,9999,5.2459,9999,4.93161,0,0.987247,9999,0.551672,9999:9999,9999:9999,9999,n/a,N/A,Unknown,N/A,0,0,2020-06-29T15:51:15.610,6000
0,152,,0,-9.0912,-53.0603,4.10822,-0.569184,-6.81903,86.4439:-37.3333:728.855,0.988989,275:152 183x183,512,0.710698,opened,unknown,0.999808,1,none,0.992709,9999,-51.0705,9999,14.4159,9999,4.80874,9999,4.58072,0,0.987961,9999,0.583571,9999:9999,9999:9999,9999,n/a,N/A,Unknown,N/A,0,0,2020-06-29T15:51:15.650,6040
0,153,,0,-9.23678,-53.6106,3.51959,-0.569184,-6.81903,86.3936:-37.4093:728.855,0.989372,275:151 183x183,512,0.709988,opened,unknown,0.999987,1,none,0.992512,9999,-50.1973,9999,14.5839,9999,5.2459,9999,4.63797,0,0.98937,9999,0.578366,9999:9999,9999:9999,9999,n/a,N/A,Unknown,N/A,0,0,2020-06-29T15:51:15.690,6080
0,154,,0,-9.28536,-53.6496,3.56948,-0.569184,-6.81903,86.324:-37.0819:728.855,0.989994,275:152 183x183,512,0.709278,opened,unknown,0.999983,1,none,0.992512,9999,-49.7612,9999,14.7748,9999,5.2459,9999,4.99147,0,0.98886,9999,0.54623,9999:9999,9999:9999,9999,n/a,N/A,Unknown,N/A,0,0,2020-06-29T15:51:15.730,6120
0,155,,0,-9.21972,-52.5826,2.88762,-0.569184,-6.81903,86.2159:-37.3586:728.855,0.989976,274:152 183x183,512,0.708568,opened,unknown,0.999969,1,none,0.99271,9999,-49.7442,9999,14.7239,9999,4.80874,9999,5.07509,0,0.989972,9999,0.538628,9999:9999,9999:9999,9999,n/a,N/A,Unknown,N/A,0,0,2020-06-29T15:51:15.770,6160
0,156,,0,-9.36568,-51.7028,2.22105,-0.569184,-6.81903,85.9878:-37.4221:728.855,0.989251,275:152 183x183,512,0.70786,opened,unknown,0.999917,1,none,0.99271,9999,-50.4434,9999,14.2808,9999,5.2459,9999,4.88301,0,0.989192,9999,0.55609,9999:9999,9999:9999,9999,n/a,N/A,Unknown,N/A,0,0,2020-06-29T15:51:15.810,6200
0,157,,0,-9.63606,-52.0286,2.49091,-0.569184,-6.81903,85.8764:-37.3489:728.855,0.98922,274:152 183x183,512,0.707152,opened,unknown,0.999889,1,none,0.99259,9999,-52.0076,9999,13.831,9999,5.2459,9999,4.66761,0,0.989136,9999,0.575671,9999:9999,9999:9999,9999,n/a,N/A,Unknown,N/A,0,0,2020-06-29T15:51:15.850,6240
0,158,,0,-9.46921,-52.1161,2.22525,-0.569184,-6.81903,85.5853:-37.6179:728.855,0.989997,274:152 183x183,512,0.706445,opened,unknown,0.999904,1,none,0.99259,9999,-52.8248,9999,13.3744,9999,5.2459,9999,5.28628,0,0.989997,9999,0.519429,9999:9999,9999:9999,9999,n/a,N/A,Unknown,N/A,0,0,2020-06-29T15:51:15.890,6280
0,159,,0,-9.51671,-50.9917,2.24625,-0.569184,-6.81903,85.2666:-37.5939:728.855,0.989987,273:152 183x183,512,0.705738,opened,unknown,0.999995,1,none,0.992584,9999,-53.4848,9999,13.2133,9999,5.2459,9999,5.27891,0,0.989987,9999,0.520099,9999:9999,9999:9999,9999,n/a,N/A,Unknown,N/A,0,0,2020-06-29T15:51:15.930,6320
0,160,,0,-9.5534,-50.5768,2.38612,-0.569184,-6.81903,84.7663:-37.5918:728.855,0.989963,272:152 183x183,512,0.705033,opened,unknown,0.999962,1,none,0.992584,9999,-53.8475,9999,12.9909,9999,5.2459,9999,5.04384,0,0.989955,9999,0.54147,9999:9999,9999:9999,9999,n/a,N/A,Unknown,N/A,0,0,2020-06-29T15:51:15.970,6360
0,161,,0,-8.49581,-50.3076,1.00667,-0.569184,-6.81903,84.0299:-38.0103:728.855,0.989449,271:151 183x183,512,0.697982,opened,unknown,0.999943,1,none,0.992979,9999,-53.7633,9999,12.6747,9999,5.68306,9999,5.25151,0,0.989449,9999,0.52259,9999:9999,9999:9999,9999,n/a,N/A,Unknown,N/A,0,0,2020-06-29T15:51:16.010,6400
0,162,,0,-7.34552,-49.9457,-1.16009,-0.569184,-6.81903,82.6634:-37.9193:728.855,0.945897,269:151 183x183,512,0.691002,opened,unknown,0.999996,1,none,0.992979,9999,-53.3097,9999,12.4857,9999,5.68306,9999,5.34085,0,0.945886,9999,0.514468,9999:9999,9999:9999,9999,n/a,N/A,Unknown,N/A,0,0,2020-06-29T15:51:16.050,6440
0,163,,0,-7.20411,-48.2208,-2.69918,-0.569184,-6.81903,80.678:-38.489:728.855,0.868711,267:151 183x183,512,0.684092,opened,unknown,0.999995,1,none,0.993001,9999,-52.0259,9999,12.2112,9999,5.2459,9999,5.04264,0,0.868711,9999,0.541578,9999:9999,9999:9999,9999,n/a,N/A,Unknown,N/A,0,0,2020-06-29T15:51:16.090,6480
0,164,,0,-7.5948,-45.1719,-2.71572,-0.569184,-6.81903,77.5849:-39.2617:728.855,0.818134,264:150 183x183,512,0.677251,opened,unknown,0.999994,0.756598,none,0.993001,9999,-50.6454,9999,12.0006,9999,5.2459,9999,4.81272,0,0.818073,9999,0.56248,9999:9999,9999:9999,9999,n/a,N/A,Unknown,N/A,0,0,2020-06-29T15:51:16.130,6520
0,165,,0,-7.43253,-42.6117,-2.80593,-0.569184,-6.81903,73.6349:-39.8286:728.855,0.704263,261:150 183x183,512,0.670479,opened,opened,0.999966,0.753364,none,0.993106,9999,-49.9937,9999,11.5823,9999,5.2459,9999,5.23384,0,0.704205,9999,0.524196,9999:9999,9999:9999,9999,n/a,N/A,Unknown,N/A,0,0,2020-06-29T15:51:16.170,6560
0,166,,0,-6.85595,-41.0054,-3.02763,-0.569184,-6.81903,69.0973:-40.7748:728.855,0.696018,258:150 183x183,512,0.663774,opened,opened,0.9999,0.954606,none,0.993106,9999,-49.8623,9999,11.4205,9999,5.68306,9999,4.9505,0,0.695974,9999,0.549955,9999:9999,9999:9999,9999,n/a,N/A,Unknown,N/A,0,0,2020-06-29T15:51:16.210,6600
0,167,,0,-6.61328,-39.5598,-1.98975,-0.569184,-6.81903,64.1652:-41.3627:728.855,0.794636,255:149 183x183,512,0.657136,opened,opened,0.999921,0.986141,none,0.992621,9999,-47.8954,9999,10.7148,9999,5.68306,5.77008,5.02389,0.778743,0.794636,0.475447,0.543283,9999:9999,9999:9999,9999,n/a,N/A,Unknown,N/A,0,0,2020-06-29T15:51:16.250,6640
0,168,,0,-6.86874,-36.7684,-0.832993,-0.569184,-6.81903,60.4214:-41.6367:728.855,0.761815,252:149 183x183,512,0.650565,opened,opened,0.999949,0.9992,none,0.992621,9999,-43.3313,9999,10.4721,9999,5.68306,5.78108,4.59307,0.746579,0.761813,0.474448,0.582448,9999:9999,9999:9999,9999,n/a,N/A,Unknown,N/A,0,0,2020-06-29T15:51:16.290,6680
0,169,,0,-7.38087,-34.255,-0.373467,-0.657647,-7.17534,56.7562:-41.4159:728.855,0.742686,249:148 183x183,512,0.644059,opened,opened,0.999229,0.997468,none,0.992787,9999,-39.482,9999,9.62727,9999,5.68306,5.81695,4.61729,0.727832,0.742686,0.471186,0.580246,9999:9999,9999:9999,9999,n/a,N/A,Unknown,N/A,0,0,2020-06-29T15:51:16.330,6720
0,170,,0,-5.14179,-32.0172,0.369583,-0.715136,-7.49383,52.5334:-42.0184:728.855,0.689956,247:147 183x183,512,0.637619,opened,opened,0.998075,0.999962,none,0.992787,-9.16723,-9.16723,0.156295,0.156295,3.93443,5.2459,3.95007,4.92422,0.686731,0.689956,0.640903,0.552344,37:-20,-5:-22,9999,n/a,N/A,Unknown,N/A,0,0,2020-06-29T15:51:16.370,6760
0,171,,0,-1.99054,-29.8021,2.08969,-0.731281,-7.77621,49.1755:-42.0064:728.855,0.700266,244:147 183x183,512,0.631243,opened,opened,0.992663,0.999959,none,0.99313,-4.90993,-4.90993,0.98394,0.98394,3.93443,5.68306,4.24964,5.1502,0.699279,0.700266,0.61367,0.5318,36:-20,-10:-23,9999,n/a,N/A,Unknown,N/A,0,0,2020-06-29T15:51:16.410,6800
0,172,,0,-1.6957,-28.1812,2.55756,-0.743336,-8.03127,39.7232:-42.8389:728.724,0.673594,216:143 185x185,64,0.805085,opened,opened,0.99931,0.999969,none,0.99313,-2.9528,-2.9528,2.48262,2.48262,4.3708,6.11912,4.10525,5.27924,0.669527,0.673594,0.626795,0.520069,34:-20,-14:-24,9999,n/a,N/A,Unknown,N/A,0,0,2020-06-29T15:51:16.450,6840
0,173,,0,-1.30275,-26.3412,1.54992,-0.750242,-8.25732,29.3865:-44.0555:728.593,0.671478,213:143 185x185,512,0.797034,opened,opened,0.997785,0.999957,none,0.993326,-1.41763,-1.41763,3.90372,3.90372,5.24401,5.68101,4.30593,4.50595,0.636151,0.671478,0.608552,0.590369,32:-20,-18:-24,9999,n/a,N/A,Unknown,N/A,0,0,2020-06-29T15:51:16.490,6880
0,174,,0,-1.06118,-25.6738,1.52551,-0.754034,-8.46972,21.0756:-44.5564:728.462,0.774666,211:143 185x185,512,0.789064,opened,opened,0.999362,0.999999,none,0.993326,1.17456,1.17456,4.94766,4.94766,5.67999,5.67999,4.9991,4.95995,0.761251,0.774655,0.545536,0.549096,29:-20,-20:-23,9999,n/a,N/A,Unknown,N/A,0,0,2020-06-29T15:51:16.530,6920
0,175,,0,-2.21213,-24.4295,1.95779,-0.771602,-8.662,11.3079:-45.6081:728.33,0.882197,208:142 185x185,512,0.781173,opened,opened,0.992362,0.999995,none,0.993169,1.799,1.799,6.88594,6.88594,5.24212,5.67896,5.0329,5.04006,0.858188,0.882196,0.542464,0.541813,27:-20,-21:-23,9999,n/a,N/A,Unknown,N/A,0,0,2020-06-29T15:51:16.570,6960
0,176,,0,-2.26092,-23.069,1.57093,-0.789332,-8.83351,7.39743:-45.5069:728.199,0.983464,205:143 185x185,512,0.773362,opened,opened,0.998932,1,none,0.993169,1.35582,1.35582,7.98606,7.98606,5.67794,5.67794,5.1676,5.34216,0.980124,0.983464,0.530218,0.514349,25:-20,-24:-23,9999,n/a,N/A,Unknown,N/A,0,0,2020-06-29T15:51:16.610,7000
0,177,,0,-2.31959,-21.9164,1.61734,-0.807335,-8.98743,3.58248:-45.4973:728.068,0.937836,202:142 185x185,512,0.765628,opened,opened,0.99935,1,none,0.99329,2.56368,2.56368,8.25819,8.25819,5.24023,6.1136,5.49042,5.68218,0.932903,0.937834,0.500871,0.483438,23:-20,-27:-24,9999,n/a,N/A,Unknown,N/A,0,0,2020-06-29T15:51:16.650,7040
0,178,,0,-2.13936,-19.103,2.0121,-0.822823,-9.10505,-1.07523:-45.4569:727.936,0.861951,200:141 185x185,512,0.757972,opened,opened,0.999857,0.999999,none,0.99329,2.94032,2.94032,7.40924,7.40924,5.23929,5.67589,5.56671,5.63471,0.861179,0.861951,0.493935,0.487754,21:-21,-29:-24,9999,n/a,N/A,Unknown,N/A,0,0,2020-06-29T15:51:16.690,7080
0,179,,0,-1.07231,-16.8043,1.46532,-0.825691,-9.19355,-5.60864:-44.7218:727.805,0.861008,197:142 185x185,512,0.750392,opened,opened,0.999799,1,none,0.831599,3.05715,3.05715,6.58728,6.58728,5.23834,6.1114,5.60003,5.86258,0.860987,0.861007,0.490906,0.467038,20:-21,-32:-24,9999,n/a,N/A,Unknown,N/A,0,0,2020-06-29T15:51:16.730,7120
0,180,,0,-0.812514,-14.433,1.42259,-0.825541,-9.25309,-10.5861:-44.89:727.674,0.71964,195:141 185x185,512,0.742888,opened,opened,0.99988,1,none,0.831599,3.12195,3.12195,6.23661,6.23661,5.2374,6.1103,5.36962,5.72822,0.718438,0.719639,0.511853,0.479253,18:-21,-34:-24,9999,n/a,N/A,Unknown,N/A,0,0,2020-06-29T15:51:16.770,7160
0,181,,0,-0.771953,-12.1249,1.93566,-0.824939,-9.28536,-14.1449:-44.7312:727.542,0.638779,194:141 185x185,512,0.742145,opened,opened,0.99996,1,none,0.847934,3.32026,3.32026,5.87901,5.87901,5.23645,6.10919,5.53252,5.44558,0.638773,0.638773,0.497044,0.504947,17:-21,-35:-24,9999,n/a,N/A,Unknown,N/A,0,0,2020-06-29T15:51:16.810,7200
0,182,,0,-0.717374,-11.0552,2.30994,-0.823744,-9.30502,-17.8884:-44.6537:727.411,0.73064,191:141 185x185,512,0.734724,opened,opened,0.9999,1,none,0.847934,3.42593,3.42593,5.55696,5.55696,5.23551,5.6718,5.66015,5.44245,0.73063,0.73064,0.485441,0.505232,16:-21,-36:-23,9999,n/a,N/A,Unknown,N/A,0,0,2020-06-29T15:51:16.850,7240
0,183,,0,-0.992902,-9.65802,2.58292,-0.825603,-9.3089,-20.2688:-45.0229:727.28,0.674139,191:141 185x185,512,0.733989,opened,opened,0.999797,1,none,0.856672,3.66704,3.66704,5.66708,5.66708,5.23456,5.67077,5.26648,5.29847,0.674138,0.67411,0.521229,0.518321,14:-21,-37:-23,9999,n/a,N/A,Unknown,N/A,0,0,2020-06-29T15:51:16.890,7280
0,184,,0,-1.13105,-8.3293,2.41513,-0.828923,-9.29825,-22.4741:-44.6226:727.148,0.856654,189:141 185x185,512,0.726649,opened,opened,0.999978,1,none,0.856672,4.14147,4.14147,5.57513,5.57513,5.23361,5.66975,5.26936,5.46675,0.856647,0.856654,0.520967,0.503023,13:-21,-39:-23,9999,n/a,N/A,Unknown,N/A,0,0,2020-06-29T15:51:16.930,7320
0,185,,0,-1.1862,-7.10659,2.18425,-0.832765,-9.27469,-25.5339:-44.3127:727.017,0.92774,187:142 185x185,512,0.719383,opened,opened,0.99995,1,none,0.871086,4.38374,4.38374,5.18658,5.18658,5.66873,5.66873,5.37018,5.32006,0.927555,0.92773,0.511801,0.516358,12:-21,-40:-23,9999,n/a,N/A,Unknown,N/A,0,0,2020-06-29T15:51:16.970,7360
0,186,,0,-1.76301,-5.76049,2.34094,-0.842661,-9.2373,-27.9116:-44.3244:726.886,0.929191,186:141 185x185,512,0.712189,opened,opened,0.999989,1,none,0.871086,4.33263,4.33263,4.8868,4.8868,5.23172,5.23172,5.60762,4.72441,0.929182,0.929139,0.490216,0.570508,11:-22,-40:-23,9999,n/a,N/A,Unknown,N/A,0,0,2020-06-29T15:51:17.010,7400
0,187,,0,-2.08347,-4.78389,2.41548,-0.855722,-9.19042,-30.9811:-44.2316:726.754,0.986317,184:141 185x185,512,0.705067,opened,opened,0.999974,1,none,0.887459,5.1288,5.1288,4.33365,4.33365,5.66668,5.23078,5.70591,4.84919,0.984122,0.986317,0.481281,0.559164,10:-22,-43:-23,9999,n/a,N/A,Unknown,N/A,0,0,2020-06-29T15:51:17.050,7440
0,188,,0,-2.4384,-4.18235,1.92701,-0.872208,-9.13826,-33.8613:-44.7908:726.623,0.989531,183:141 185x185,512,0.704362,opened,opened,0.999962,1,none,0.887459,5.55342,5.55342,4.11605,4.11605,5.66565,5.22983,5.14311,4.57667,0.988462,0.989337,0.532444,0.583939,8:-22,-44:-23,9999,n/a,N/A,Unknown,N/A,0,0,2020-06-29T15:51:17.090,7480
0,189,,0,-2.08248,-3.61101,1.53171,-0.884685,-9.08128,-36.0875:-44.9644:726.492,0.989998,182:141 185x185,512,0.703658,opened,opened,0.998973,0.978611,none,0.904472,4.78937,4.78937,5.26333,5.26333,5.66463,4.79315,4.2063,4.05368,0.989981,0.987148,0.617609,0.631484,6:-22,-45:-21,9999,n/a,N/A,Unknown,N/A,0,0,2020-06-29T15:51:17.130,7520
0,190,,0,-1.38803,-3.02356,1.10654,-0.889821,-9.01946,-38.3255:-44.7048:726.36,0.99,181:141 185x185,512,0.702954,opened,opened,0.980419,0.978611,none,0.904472,3.63255,3.63255,7.35585,7.35585,5.22794,5.22794,3.12274,3.22653,0.989988,0.958355,0.716114,0.706679,5:-21,-44:-20,9999,n/a,N/A,Unknown,N/A,0,0,2020-06-29T15:51:17.170,7560
0,191,,0,-1.98733,-2.64576,0.937269,-0.900907,-8.95508,-39.7698:-44.8931:726.229,0.99,181:141 185x185,512,0.702251,opened,closed,0.980419,0.961944,none,0.92452,9999,-4.78262,9999,10.523,9999,5.227,0,2.74368,0.989964,0.566033,1,0.750574,6:-20,-46:-19,9999,n/a,N/A,Unknown,N/A,0,0,2020-06-29T15:51:17.210,7600
0,192,,0,-2.23166,-2.67649,0.854554,-0.914215,-8.8923,-40.7283:-44.4192:726.098,0.99,180:141 185x185,512,0.701549,closed,closed,0.932822,0.990783,none,0.92452,9999,9999,9999,9999,9999,9999,0,0,0.98451,0.987081,1,1,9999:9999,9999:9999,9999,n/a,N/A,Unknown,N/A,0,0,2020-06-29T15:51:17.250,7640
0,193,,0,-2.2965,-2.91078,1.13155,-0.927901,-8.83307,-41.4389:-44.5651:725.967,0.989999,179:141 185x185,512,0.700847,closed,closed,0.921022,0.993242,none,0.943687,9999,9999,9999,9999,9999,9999,0,0,0.945571,0.98949,1,1,9999:9999,9999:9999,9999,n/a,N/A,Unknown,N/A,0,0,2020-06-29T15:51:17.290,7680
